store_id,brand,name,city,postcode,region,latitude,longitude,msoa21cd
28890,Domino's,Helston,Helston,,South West (England),50.100798,-5.276118,
28666,Domino's,Penzance,Penzance,,South West (England),50.120036,-5.534451,
28925,Domino's,Hayle,Hayle,,South West (England),50.185326,-5.42106,
28754,Domino's,Redruth,Tuckingmill,,South West (England),50.225283,-5.277013,
28522,Domino's,Falmouth,Falmouth,,South West (England),50.154291,-5.073233,
28669,Domino's,Truro,Truro,,South West (England),50.263436,-5.045535,
28613,Domino's,Newquay,Newquay,,South West (England),50.415588,-5.075365,
28480,Domino's,St Austell,St. Austell,,South West (England),50.334181,-4.778338,
28788,Domino's,Plymouth - City Centre,Plymouth,,South West (England),50.37183,-4.133587,
28118,Domino's,Plymouth - Mutley Plain,Plymouth,,South West (England),50.3819041496696,-4.13404724419402,
28440,Domino's,Plymouth - St Budeaux,Plymouth,,South West (England),50.401749,-4.185567,
28700,Domino's,Plympton,Plymouth,,South West (England),50.387117,-4.023556,
28891,Domino's,Bodmin,Bodmin,,South West (England),50.472446,-4.720928,
29014,Domino's,Liskeard,Liskeard,,South West (England),50.45507,-4.465488,
29327,Domino's,Saltash,Saltash,,South West (England),50.416777,-4.234197,
28805,Domino's,Plymouth - Roborough,South Hams,,South West (England),50.43538,-4.10721,
28280,Domino's,Paignton,Paignton,,South West (England),50.44662,-3.559335,
28992,Domino's,Torquay - Sea Front,Torquay,,South West (England),50.462174,-3.52598,
28200,Domino's,Torquay,Torquay,,South West (England),50.477515,-3.527503,
28308,Domino's,Newton Abbot,Teignbridge,,South West (England),50.531044,-3.602632,
29304,Domino's,Launceston,Launceston,,South West (England),50.6287264773893,-4.37300485426955,
29299,Domino's,Bovey Tracey,Teignbridge,,South West (England),50.59136,-3.67868,
28659,Domino's,Exmouth,East Devon,,South West (England),50.620535,-3.414839,
28931,Domino's,Weymouth - Wyke Regis,Weymouth,,South West (England),50.592639,-2.474683,
28353,Domino's,Weymouth,Weymouth,,South West (England),50.614542,-2.45379,
28647,Domino's,Dorchester,Dorchester,,South West (England),50.710953,-2.442416,
29122,Domino's,Shanklin (Isle of Wight),Shanklin,,South East (England),50.629882,-1.178003,
28653,Domino's,Newport (Isle of Wight),Carisbrooke,,South East (England),50.697988,-1.295026,
29397,Domino's,Bude,Bude–Stratton,,South West (England),50.830089,-4.5425,
28833,Domino's,Exeter - St Thomas,Exeter,,South West (England),50.717486,-3.540888,
28187,Domino's,Exeter - Sidwell Street,Exeter,,South West (England),50.727615,-3.523572,
28861,Domino's,Exeter - Honiton Road,Exeter,,South West (England),50.723937,-3.473158,
29357,Domino's,Honiton,East Devon,,South West (England),50.79954,-3.18935,
28961,Domino's,Bridport,Bridport,,South West (England),50.733526,-2.762205,
28959,Domino's,Upton and Hamworthy,Upton,,South West (England),50.73893,-2.030306,
28455,Domino's,Poole - Waterloo Road,Poole,,South West (England),50.743661,-1.986307,
28122,Domino's,Poole - Parkstone,Poole,,South West (England),50.729159,-1.941254,
29105,Domino's,Blandford Forum,Blandford Forum,,South West (England),50.856216,-2.162911,
28449,Domino's,Bournemouth - Lansdowne,Bournemouth,,South West (England),50.722459,-1.865514,
28121,Domino's,Bournemouth - Winton,Bournemouth,,South West (England),50.744839,-1.878588,
28711,Domino's,Bournemouth - Kinson,Bournemouth,,South West (England),50.768881,-1.903016,
28281,Domino's,Ferndown,Ferndown,,South West (England),50.803886,-1.890688,
28194,Domino's,Christchurch - Barrack Road,Christchurch,,South West (England),50.740031,-1.792159,
28764,Domino's,Christchurch - Somerford Road,Christchurch,,South West (England),50.737411,-1.752828,
29267,Domino's,New Milton,New Forest,,South East (England),50.754,-1.656,
29259,Domino's,Ringwood,New Forest,,South East (England),50.847,-1.791,
29022,Domino's,Lymington,New Forest,,South East (England),50.757026,-1.54741,
28623,Domino's,Ryde,Ryde,,South East (England),50.73025,-1.162415,
28231,Domino's,Alverstoke,Gosport,,South East (England),50.792664,-1.14999,
28753,Domino's,Fareham - Stubbington,Stubbington,,South East (England),50.825192,-1.214683,
29189,Domino's,Portsmouth - City,Portsmouth,,South East (England),50.795057,-1.088544,
28134,Domino's,Portsmouth - South,Portsmouth,,South East (England),50.798375,-1.077121,
29197,Domino's,Portsmouth - Milton,Portsmouth,,South East (England),50.797611,-1.060964,
28123,Domino's,Fareham - Central,Fareham,,South East (England),50.85274,-1.184997,
28130,Domino's,Portsmouth - North,Portsmouth,,South East (England),50.814827,-1.079977,
29363,Domino's,Hayling Island,Mengham,,South East (England),50.7887,-0.97722,
29208,Domino's,Portchester,Fareham,,South East (England),50.84623,-1.124244,
28514,Domino's,Portsmouth - Cosham,Portsmouth,,South East (England),50.844253,-1.067523,
28228,Domino's,Havant,Havant,,South East (England),50.85264,-0.984926,
28299,Domino's,Bognor Regis,Arun,,South East (England),50.785843,-0.675936,
28277,Domino's,Chichester,Chichester,,South East (England),50.830476,-0.785108,
28328,Domino's,Littlehampton,Arun,,South East (England),50.819524,-0.544642,
28955,Domino's,Rustington,Arun,,South East (England),50.809966,-0.504941,
28699,Domino's,Goring-by-Sea,Worthing,,South East (England),50.812448,-0.420914,
28265,Domino's,Worthing,Worthing,,South East (England),50.829151,-0.374978,
28990,Domino's,Lancing,Adur,,South East (England),50.82841,-0.322154,
28588,Domino's,Shoreham-By-Sea,Adur,,South East (England),50.832228,-0.278022,
28863,Domino's,Portslade,Portslade by Sea,,South East (England),50.835108,-0.205898,
29274,Domino's,Brighton - Whitehawk,Brighton,,South East (England),50.81722,-0.10712,
28102,Domino's,Brighton - St Georges Place (Closed),Brighton,,South East (England),50.827811,-0.135691,
28312,Domino's,Hove,Portslade by Sea,,South East (England),50.839171,-0.178444,
28668,Domino's,Brighton - London Road,Brighton,,South East (England),50.832569,-0.137805,
29277,Domino's,Brighton - Saltdean,Brighton,,South East (England),50.807,-0.042,
28266,Domino's,Peacehaven,Peacehaven,,South East (England),50.789093,0.011631,
28841,Domino's,Seaford,Seaford,,South East (England),50.773007,0.102665,
29265,Domino's,Brighton - Moulsecoomb,Brighton,,South East (England),50.852,-0.104,
28667,Domino's,Brighton - Patcham,Patcham,,South East (England),50.863941,-0.144951,
28221,Domino's,Eastbourne - Town,Eastbourne,,South East (England),50.76901,0.28739,
29075,Domino's,Eastbourne - Freshwater Square,Wealden,,South East (England),50.80693,0.252859,
28289,Domino's,Eastbourne - Langney,Eastbourne,,South East (England),50.803337,0.303922,
28736,Domino's,Hailsham,Wealden,,South East (England),50.862344,0.260673,
28489,Domino's,Bexhill on Sea,Rother,,South East (England),50.840332,0.476994,
28275,Domino's,Hastings,St Leonards,,South East (England),50.85722,0.576961,
29087,Domino's,Bideford,Torridge,,South West (England),51.00943,-4.238989,
28787,Domino's,Tiverton,Mid Devon,,South West (England),50.905025,-3.485881,
29451,Domino's,Wellington,Wellington,,South West (England),50.979804,-3.205938,
28911,Domino's,Chard,Chard,,South West (England),50.873434,-2.960353,
28974,Domino's,Crewkerne,Crewkerne,,South West (England),50.880796,-2.78883,
28839,Domino's,Taunton - East Reach,Taunton,,South West (England),51.014912,-3.095704,
28209,Domino's,Yeovil,Yeovil,,South West (England),50.942926,-2.625307,
29026,Domino's,Shaftesbury,Shaftesbury,,South West (England),51.010479,-2.192067,
28432,Domino's,Southampton - Totton,New Forest,,South East (England),50.919747,-1.491611,
28571,Domino's,Southampton - Hythe,New Forest,,South East (England),50.870085,-1.399569,
28393,Domino's,Southampton - Shirley,Southampton,,South East (England),50.917676,-1.427073,
29207,Domino's,Southampton - Romsey Road,Southampton,,South East (England),50.931136,-1.44922,
28070,Domino's,Southampton - The Avenue,Southampton,,South East (England),50.919145,-1.404506,
29076,Domino's,Southampton - Weston,Southampton,,South East (England),50.889382,-1.367529,
28859,Domino's,Southampton - Burgess Road,Southampton,,South East (England),50.938219,-1.392435,
28035,Domino's,Southampton - Bitterne,Southampton,,South East (England),50.91468,-1.357933,
28712,Domino's,Romsey,Test Valley,,South East (England),50.987446,-1.498873,
29243,Domino's,Fareham - Park Gate,Fareham,,South East (England),50.872372,-1.267996,
28638,Domino's,Southampton - Hedge End,Hedge End,,South East (England),50.913284,-1.304308,
28211,Domino's,Fareham - Whiteley,Winchester,,South East (England),50.879578,-1.241586,
28158,Domino's,Eastleigh,Eastleigh,,South East (England),50.969242,-1.353193,
29365,Domino's,Eastleigh - Fair Oak,Eastleigh,,South East (England),50.964162,-1.297406,
28848,Domino's,Eastleigh - Chandler's Ford,Chandler's Ford,,South East (England),50.987316,-1.376482,
28135,Domino's,Waterlooville,Waterlooville,,South East (England),50.877917,-1.033874,
29142,Domino's,Waterlooville - Cowplain,Havant,,South East (England),50.89404,-1.018808,
28549,Domino's,Petersfield,East Hampshire,,South East (England),51.005752,-0.939195,
29402,Domino's,Storrington,Storrington,,South East (England),50.918407,-0.451903,
28870,Domino's,Pulborough,Horsham,,South East (England),50.9575,-0.503543,
28491,Domino's,Burgess Hill,Mid Sussex,,South East (England),50.954838,-0.128036,
28775,Domino's,Lewes,Lewes,,South East (England),50.872992,0.010523,
28168,Domino's,Haywards Heath,Mid Sussex,,South East (England),51.00584,-0.102949,
28601,Domino's,Uckfield,Wealden,,South East (England),50.971154,0.096172,
28921,Domino's,Heathfield,Wealden,,South East (England),50.970947,0.248754,
28923,Domino's,Hastings - Ore,Hastings,,South East (England),50.872555,0.608568,
29329,Domino's,New Romney,Folkestone and Hythe,,South East (England),50.98605,0.94083,
28578,Domino's,Barnstaple,North Devon,,South West (England),51.077764,-4.064419,
28147,Domino's,Taunton,Taunton,,South West (England),51.020601,-3.10377,
28348,Domino's,Bridgwater,Bridgwater,,South West (England),51.13007,-3.00648,
28559,Domino's,Glastonbury,Glastonbury,,South West (England),51.142878,-2.728871,
29333,Domino's,Gillingham - Dorset,Gillingham,,South West (England),51.037399,-2.273498,
28195,Domino's,Salisbury,Salisbury,,South West (England),51.069541,-1.79993,
29170,Domino's,Winchester - North,Winchester,,South East (England),51.073944,-1.336321,
28216,Domino's,Winchester,Winchester,,South East (England),51.063746,-1.312874,
28563,Domino's,Bordon,East Hampshire,,South East (England),51.111666,-0.862909,
28500,Domino's,Alton,East Hampshire,,South East (England),51.149326,-0.974662,
28835,Domino's,Haslemere,Waverley,,South East (England),51.087811,-0.727118,
28763,Domino's,Hindhead,Waverley,,South East (England),51.122389,-0.753716,
28999,Domino's,Horsham - Southwater,Horsham,,South East (England),51.024905,-0.351291,
28072,Domino's,Horsham,Horsham,,South East (England),51.065068,-0.330499,
29433,Domino's,Cranleigh,Waverley,,South East (England),51.142582,-0.494294,
28100,Domino's,Crawley,Crawley,,South East (England),51.116083,-0.189523,
28973,Domino's,Crawley - Pound Hill,Crawley,,South East (England),51.117727,-0.153738,
28304,Domino's,East Grinstead,Mid Sussex,,South East (England),51.1264,-0.008478,
28566,Domino's,Crowborough,Wealden,,South East (England),51.058459,0.161951,
28115,Domino's,Tunbridge Wells,Tunbridge Wells,,South East (England),51.135689,0.260516,
29130,Domino's,Southborough,Tunbridge Wells,,South East (England),51.160309,0.257603,
29281,Domino's,Cranbrook,Tunbridge Wells,,South East (England),51.096,0.534,
29367,Domino's,Tenterden,Tenterden,,South East (England),51.06925,0.68891,
29073,Domino's,Ashford - South,Ashford,,South East (England),51.123231,0.865253,
28146,Domino's,Ashford,Ashford,,South East (England),51.150736,0.875922,
28336,Domino's,Folkestone,Folkestone and Hythe,,South East (England),51.086169,1.152556,
28755,Domino's,Dover,Dover,,South East (England),51.127582,1.312436,
29223,Domino's,Burnham-on-Sea,Burnham-on-Sea,,South West (England),51.238408,-2.997434,
29001,Domino's,Shepton Mallet,Shepton Mallet,,South West (England),51.190279,-2.546947,
28243,Domino's,Midsomer Norton,Midsomer Norton,,South West (England),51.288296,-2.478429,
28199,Domino's,Frome,Frome,,South West (England),51.227276,-2.322009,
28734,Domino's,Warminster,Warminster,,South West (England),51.205439,-2.183433,
28516,Domino's,Amesbury,Amesbury,,South West (England),51.17164,-1.779945,
28663,Domino's,Tidworth,Tidworth,,South West (England),51.234408,-1.66087,
28125,Domino's,Andover,Test Valley,,South East (England),51.2057,-1.47973,
28978,Domino's,Overton,Basingstoke and Deane,,South East (England),51.244,-1.2631,
28546,Domino's,Basingstoke - Brighton Hill,Basingstoke and Deane,,South East (England),51.245013,-1.114162,
28073,Domino's,Basingstoke - Town Centre,Basingstoke and Deane,,South East (England),51.262254,-1.09019,
28366,Domino's,Basingstoke - Chineham,Basingstoke and Deane,,South East (England),51.284694,-1.060076,
29071,Domino's,Hook,Hart,,South East (England),51.275043,-0.977842,
28149,Domino's,Farnham,Waverley,,South East (England),51.215986,-0.796698,
29218,Domino's,Church Crookham,Hart,,South East (England),51.264405,-0.840211,
28047,Domino's,Fleet,Hart,,South East (England),51.278505,-0.845664,
28300,Domino's,Aldershot,Rushmoor,,South East (England),51.248275,-0.76313,
28782,Domino's,Godalming,Waverley,,South East (England),51.18472,-0.616594,
29383,Domino's,Ash Vale,Guildford,,South East (England),51.2575,-0.72034,
28074,Domino's,Farnborough - Central,Rushmoor,,South East (England),51.29353,-0.75593,
28718,Domino's,Frimley,Surrey Heath,,South East (England),51.301975,-0.726801,
28081,Domino's,Guildford,Guildford,,South East (England),51.244959,-0.576691,
29167,Domino's,Guildford - Stoughton,Guildford,,South East (England),51.248967,-0.586912,
29146,Domino's,Guildford - Merrow,Guildford,,South East (England),51.245921,-0.530571,
28269,Domino's,Dorking,Mole Valley,,South East (England),51.233942,-0.327633,
28503,Domino's,Horley,Reigate and Banstead,,South East (England),51.172036,-0.162392,
28936,Domino's,Reigate,Reigate and Banstead,,South East (England),51.235842,-0.20451,
28068,Domino's,Leatherhead,Mole Valley,,South East (England),51.292081,-0.337182,
28177,Domino's,Redhill,Reigate and Banstead,,South East (England),51.238973,-0.169232,
28495,Domino's,Caterham,Tandridge,,South East (England),51.284358,-0.078761,
28759,Domino's,Edenbridge,Edenbridge,,South East (England),51.196358,0.065319,
28305,Domino's,Tonbridge,Tonbridge and Malling,,South East (England),51.19299,0.27241,
28539,Domino's,Sevenoaks,Sevenoaks,,South East (England),51.287364,0.194843,
28592,Domino's,Biggin Hill,Greater London,,London,51.308989,0.037355,
28868,Domino's,Paddock Wood,Tunbridge Wells,,South East (England),51.181263,0.389741,
29098,Domino's,Borough Green,Tonbridge and Malling,,South East (England),51.292751,0.302805,
28597,Domino's,Kings Hill,Tonbridge and Malling,,South East (England),51.272363,0.400529,
28952,Domino's,Maidstone - Loose,Maidstone,,South East (England),51.252749,0.527695,
28472,Domino's,Maidstone - Barming,Maidstone,,South East (England),51.272139,0.483292,
28106,Domino's,Maidstone - Central,Maidstone,,South East (England),51.273148,0.52904,
28429,Domino's,Canterbury,Canterbury,,South East (England),51.282319,1.088355,
28807,Domino's,Faversham,Swale,,South East (England),51.313007,0.890372,
28703,Domino's,Deal - Kent,Deal,,South East (England),51.223104,1.401358,
28309,Domino's,Weston Super Mare - Central,Weston-super-Mare,,South West (England),51.33823,-2.96252,
28587,Domino's,Weston Super Mare - Locking Castle,Weston-super-Mare,,South West (England),51.353797,-2.913042,
28865,Domino's,Clevedon,Clevedon,,South West (England),51.435829,-2.854375,
28674,Domino's,Bristol - Nailsea,Nailsea,,South West (England),51.432296,-2.759394,
28963,Domino's,Bristol - Imperial Park,Bristol,,South West (England),51.415253,-2.600215,
28610,Domino's,Bristol - Brislington,Bristol,,South West (England),51.431837,-2.546558,
28636,Domino's,Bristol - Keynsham,Keynsham,,South West (England),51.413641,-2.482389,
28792,Domino's,Bristol - Bedminster,Bristol,,South West (England),51.443857,-2.59395,
28783,Domino's,Bristol - City Centre,Bristol,,South West (England),51.453536,-2.595908,
28953,Domino's,Bath - Oldfield Park,Bath,,South West (England),51.377012,-2.37829,
28169,Domino's,Bristol - Whiteladies,Bristol,,South West (England),51.464716,-2.609327,
28092,Domino's,Bath - London Road,Bath,,South West (England),51.390977,-2.355122,
28930,Domino's,Bradford-on-Avon (Closed),Bradford-on-Avon,,South West (England),51.336727,-2.252052,
28192,Domino's,Trowbridge,Trowbridge,,South West (England),51.317424,-2.207174,
29009,Domino's,Bristol - Redfield,Bristol,,South West (England),51.459467,-2.551907,
28139,Domino's,Bristol - Kingswood,Kingswood,,South West (England),51.462811,-2.511071,
28656,Domino's,Melksham,Melksham,,South West (England),51.375753,-2.139355,
28849,Domino's,Corsham,Corsham,,South West (England),51.431827,-2.187679,
28553,Domino's,Devizes,Devizes,,South West (England),51.351961,-1.990107,
28704,Domino's,Calne,Calne,,South West (England),51.439856,-2.004088,
28186,Domino's,Chippenham,Chippenham,,South West (England),51.462318,-2.11806,
28082,Domino's,Newbury,Newbury,,South East (England),51.405204,-1.325017,
29078,Domino's,Thatcham,Thatcham,,South East (England),51.403519,-1.248201,
28670,Domino's,Tadley,Basingstoke and Deane,,South East (England),51.354971,-1.141475,
28741,Domino's,Farnborough - Fernhill,Rushmoor,,South East (England),51.313166,-0.774315,
28085,Domino's,Sandhurst,Sandhurst,,South East (England),51.3456038,-0.801153,
28330,Domino's,Reading - Lower Earley,Earley,,South East (England),51.42343,-0.93342,
29090,Domino's,Camberley,Surrey Heath,,South East (England),51.338777,-0.744996,
28045,Domino's,Wokingham,Wokingham,,South East (England),51.4114,-0.830256,
28986,Domino's,Reading - Christchurch Road,Reading,,South East (England),51.442773,-0.955828,
28046,Domino's,Reading - Earley,Reading,,South East (England),51.448509,-0.936703,
28105,Domino's,Reading - Oxford Road,Reading,,South East (England),51.456826,-0.99683,
28579,Domino's,Reading - Tilehurst,Tilehurst,,South East (England),51.458486,-1.040471,
29293,Domino's,Bracknell - Birch Hill,Bracknell,,South East (England),51.39211,-0.75207,
28844,Domino's,Reading - Woodley,Woodley,,South East (England),51.453364,-0.906252,
28450,Domino's,Bagshot,Surrey Heath,,South East (England),51.361853,-0.692335,
28404,Domino's,Knaphill,Woking,,South East (England),51.317493,-0.617916,
28132,Domino's,Bracknell,Bracknell,,South East (England),51.416507,-0.748257,
28044,Domino's,Woking,Woking,,South East (England),51.318085,-0.555933,
28496,Domino's,Sunningdale,Sunningdale,,South East (England),51.392947,-0.629284,
29392,Domino's,West Byfleet,Woking,,South East (England),51.336444,-0.505831,
28723,Domino's,Addlestone,Runnymede,,South East (England),51.371883,-0.48587,
28120,Domino's,Weybridge,Elmbridge,,South East (England),51.373521,-0.456993,
29112,Domino's,Cobham,Elmbridge,,South East (England),51.330653,-0.411223,
28271,Domino's,Egham,Runnymede,,South East (England),51.431681,-0.551689,
29177,Domino's,Walton-on-Thames,Walton-on-Thames,,South East (England),51.3917,-0.41243,
28069,Domino's,London - Staines,Spelthorne,,South East (England),51.428483,-0.49468,
28757,Domino's,London - Ashford,Spelthorne,,South East (England),51.422152,-0.440759,
28435,Domino's,Thames Ditton,Elmbridge,,South East (England),51.384507,-0.346683,
28107,Domino's,London - Epsom,Epsom and Ewell,,South East (England),51.334294,-0.263459,
28156,Domino's,London - Feltham,Greater London,,London,51.442384,-0.41247,E02000552
29228,Domino's,London - Surbiton,Greater London,,London,51.393452,-0.303109,E02000608
28037,Domino's,London - Tolworth,Greater London,,London,51.379433,-0.281511,E02000614
28824,Domino's,London - Banstead,Reigate and Banstead,,South East (England),51.322723,-0.201737,
28827,Domino's,London - Worcester Park,Greater London,,London,51.378717,-0.242381,E02000845
28624,Domino's,London - Sutton South,Greater London,,London,51.358327,-0.191338,E02000857
28010,Domino's,London - Sutton North,Greater London,,London,51.369888,-0.195178,E02000846
28876,Domino's,London - New Malden,Greater London,,London,51.402674,-0.25671,E02000604
28066,Domino's,London - Kingston-Upon-Thames,Greater London,,London,51.414069,-0.286786,E02000600
28933,Domino's,London - Coulsdon,Greater London,,London,51.322323,-0.135905,E02000234
28060,Domino's,London - Teddington,Greater London,,London,51.431717,-0.345354,E02000801
29187,Domino's,London - Carshalton,Greater London,,London,51.365221,-0.161737,E02000854
28040,Domino's,London - Morden,Greater London,,London,51.399571,-0.196813,E02000711
28089,Domino's,London - Purley,Greater London,,London,51.339469,-0.117193,E02000230
28583,Domino's,London - Twickenham,Greater London,,London,51.445314,-0.333131,E02000797
29192,Domino's,London - Whitton,Greater London,,London,51.451277,-0.358281,E02000793
28502,Domino's,London - Wimbledon,Greater London,,London,51.41518,-0.197235,E02000697
28780,Domino's,London - Selsdon,Greater London,,London,51.344581,-0.060018,E02000226
28004,Domino's,London - Croydon Central,Greater London,,London,51.370928,-0.100015,
28642,Domino's,London - Croydon - West,Greater London,,London,51.38415,-0.108431,E02000208
29107,Domino's,London - New Addington,Greater London,,London,51.341302,-0.014257,E02000229
29176,Domino's,London - Addiscombe,Greater London,,London,51.382008,-0.068966,E02000214
28003,Domino's,London - Norbury,Greater London,,London,51.407611,-0.121784,E02000196
29141,Domino's,London - Thornton Heath,Greater London,,London,51.398468,-0.094063,E02000199
28415,Domino's,London - Tooting,Greater London,,London,51.424873,-0.1641,E02000957
29126,Domino's,London - Norwood Junction,Greater London,,London,51.397901,-0.071705,E02000201
28405,Domino's,London - Earlsfield,Greater London,,London,51.438551,-0.186617,E02000953
28474,Domino's,London - West Wickham,Greater London,,London,51.375777,-0.015922,E02000156
28580,Domino's,London - Crystal Palace,Greater London,,London,51.419531,-0.081571,E02000194
28922,Domino's,London - Bromley South,Greater London,,London,51.39578,0.025606,E02000142
28202,Domino's,London - Penge,Greater London,,London,51.414026,-0.052047,E02000130
28065,Domino's,London - Bromley,Greater London,,London,51.406311,0.012818,E02000134
28109,Domino's,London - Orpington,Greater London,,London,51.374634,0.098244,E02000154
28619,Domino's,London - Streatham Hill,Greater London,,London,51.440224,-0.126045,E02000643
28722,Domino's,London - Balham,Greater London,,London,51.446748,-0.148947,E02000943
28533,Domino's,London - Mottingham,Greater London,,London,51.427453,0.046099,E02000127
28621,Domino's,London - St Paul's Cray,Greater London,,London,51.404233,0.105343,E02000140
28038,Domino's,London - Catford,Greater London,,London,51.445786,-0.0181,E02000670
29123,Domino's,London - Honor Oak,Greater London,,London,51.449509,-0.043811,E02000671
29108,Domino's,London - Hither Green,Greater London,,London,51.447956,-0.001196,E02000669
28696,Domino's,Swanley,Swanley,,South East (England),51.395393,0.177828,
28227,Domino's,London - Sidcup,Greater London,,London,51.435288,0.101915,E02000090
28820,Domino's,London - Bexley,Greater London,,London,51.435837,0.126788,E02000088
29209,Domino's,London - Avery Hill,Greater London,,London,51.45024,0.082084,E02000342
28154,Domino's,London - Eltham,Greater London,,London,51.458614,0.049573,E02000339
29012,Domino's,London - Bexleyheath,Greater London,,London,51.457807,0.133194,E02000079
28735,Domino's,Longfield,Dartford,,South East (England),51.398291,0.300026,
28108,Domino's,London - Welling,Greater London,,London,51.462879,0.108292,E02000080
29164,Domino's,Snodland,Tonbridge and Malling,,South East (England),51.330041,0.443265,
28188,Domino's,London - Dartford,Dartford,,South East (England),51.442799,0.242052,
28524,Domino's,London - Crayford,Greater London,,London,51.449608,0.186769,E02000083
28272,Domino's,Northfleet,Gravesham,,South East (England),51.443173,0.336609,
29173,Domino's,Walderslade,Chatham,,South East (England),51.340341,0.526565,
28233,Domino's,Strood,Strood,,South East (England),51.395756,0.493242,
28131,Domino's,Chatham,Chatham,,South East (England),51.377113,0.539438,
28914,Domino's,Gravesend - East,Gravesham,,South East (England),51.434789,0.390955,
28690,Domino's,Gillingham - Rainham,Rainham,,South East (England),51.368218,0.584839,
28584,Domino's,Gillingham,Gillingham,,South East (England),51.395107,0.556586,
28260,Domino's,Sittingbourne,Swale,,South East (England),51.345516,0.732734,
29342,Domino's,Hoo,Hoo St. Werburgh,,South East (England),51.429097,0.556815,
28684,Domino's,Sheerness,Swale,,South East (England),51.440676,0.759318,
28510,Domino's,Whitstable,Canterbury,,South East (England),51.363548,1.044078,
28862,Domino's,Herne Bay,Canterbury,,South East (England),51.371092,1.12508,
29115,Domino's,Birchington,Thanet,,South East (England),51.37449,1.306228,
28694,Domino's,Ramsgate,Thanet,,South East (England),51.337031,1.401288,
28278,Domino's,Margate,Thanet,,South East (England),51.3867893,1.3763956,
29010,Domino's,Portishead,Portishead,,South West (England),51.484864,-2.768835,
28951,Domino's,Bristol - Stoke Bishop,Bristol,,South West (England),51.486265,-2.642063,
28981,Domino's,Bristol - Westbury on Trym (Closed),Bristol,,South West (England),51.4931,-2.61817,
28241,Domino's,Bristol - Gloucester Road,Bristol,,South West (England),51.485103,-2.585893,
28940,Domino's,Bristol - Filton,Filton,,South West (England),51.502061,-2.579474,
28866,Domino's,Bristol - Fishponds,Bristol,,South West (England),51.481959,-2.52632,
28251,Domino's,Bristol - Bradley Stoke,Bradley Stoke,,South West (England),51.535742,-2.549913,
28322,Domino's,Bristol - Emerson's Green,Kingswood,,South West (England),51.492566,-2.474854,
28337,Domino's,Yate,Yate,,South West (England),51.540844,-2.414759,
28910,Domino's,Thornbury,Thornbury,,South West (England),51.608812,-2.526223,
29252,Domino's,Royal Wootton Bassett,Royal Wootton Bassett,,South West (England),51.542,-1.904,
28029,Domino's,Swindon - West,West Swindon,,South West (England),51.558288,-1.828902,
28032,Domino's,Swindon - Old Town,Swindon,,South West (England),51.551791,-1.773715,
28324,Domino's,Swindon - Taw Hill,Blunsdon St Andrew,,South West (England),51.594362,-1.824636,
28797,Domino's,Swindon - East,Swindon,,South West (England),51.588591,-1.755901,
28715,Domino's,Wantage,Vale of White Horse,,South East (England),51.5880868,-1.4259914,
28049,Domino's,Didcot,South Oxfordshire,,South East (England),51.60646,-1.24395,
28821,Domino's,Reading - Caversham,Emmer Green,,South East (England),51.483086,-0.962435,
28884,Domino's,Wallingford,South Oxfordshire,,South East (England),51.600999,-1.125857,
28569,Domino's,Henley-on-Thames,South Oxfordshire,,South East (England),51.539349,-0.905839,
28079,Domino's,Maidenhead,Maidenhead,,South East (England),51.524033,-0.709029,
28238,Domino's,Windsor,Windsor,,South East (England),51.477789,-0.640784,
28781,Domino's,Marlow,Marlow,,South East (England),51.571114,-0.777808,
28860,Domino's,Burnham,Burnham,,South East (England),51.532686,-0.657992,
28062,Domino's,Slough,Slough,,South East (England),51.512298,-0.612967,
28650,Domino's,Langley,Slough,,South East (England),51.504354,-0.542937,
29103,Domino's,London - West Drayton,Greater London,,London,51.507202,-0.470908,E02000522
28364,Domino's,London - Cranford,Greater London,,London,51.479726,-0.41202,E02000538
28078,Domino's,London - Hillingdon,Greater London,,London,51.530077,-0.448016,E02000510
28633,Domino's,High Wycombe - Loudwater,Loudwater,,South East (England),51.610324,-0.699635,
28094,Domino's,London - Isleworth,Greater London,,London,51.474245,-0.344446,E02000540
28595,Domino's,London - Southall,Greater London,,London,51.528409,-0.372702,E02000254
28173,Domino's,London - West Ealing,Greater London,,London,51.509975,-0.327345,E02000265
28408,Domino's,London - Ickenham,Greater London,,London,51.568888,-0.439869,E02000502
28080,Domino's,London - East Sheen,Greater London,,London,51.465143,-0.263336,E02000788
29114,Domino's,London - Ruislip,Greater London,,London,51.572037,-0.412602,E02000500
28426,Domino's,London - Chiswick,Greater London,,London,51.492728,-0.252447,E02000526
27543,Domino's,London - Ealing Common,Greater London,,London,51.508426,-0.281736,E02000264
28064,Domino's,London - Putney,Greater London,,London,51.460099,-0.213057,E02000932
29211,Domino's,London - Hammersmith,Greater London,,London,51.49296,-0.23235,E02000384
29077,Domino's,London - Parsons Green,Greater London,,London,51.467593,-0.190344,E02000396
28043,Domino's,London - Fulham,Greater London,,London,51.480015,-0.198223,E02000392
28708,Domino's,London - North Acton,Greater London,,London,51.522988,-0.260474,E02000252
27541,Domino's,London - Shepherds Bush,Greater London,,London,51.506076,-0.228402,E02000376
28469,Domino's,London - West Kensington,Greater London,,London,51.493201,-0.2088,E02000383
28713,Domino's,London - Greenford Road,Greater London,,London,51.551021,-0.339067,E02000239
28006,Domino's,London - Battersea,Greater London,,London,51.460997,-0.165228,E02000930
28785,Domino's,London - Battersea Bridge,Greater London,,London,51.478396,-0.169747,E02000923
28561,Domino's,London - Lambeth,Greater London,,London,51.476692,-0.130656,E02000621
29129,Domino's,London - Brixton,Greater London,,London,51.463013,-0.108205,E02000635
29137,Domino's,London - Victoria,City of Westminster,,London,51.492549,-0.139314,E02000981
28165,Domino's,London - East Dulwich,Greater London,,London,51.46179,-0.080562,E02000830
28596,Domino's,London - New Cross,Greater London,,London,51.476419,-0.049333,E02000658
28226,Domino's,London - Elephant and Castle,Greater London,,London,51.490923,-0.103517,E02000619
28691,Domino's,London - Bermondsey,Greater London,,London,51.492205,-0.082281,E02000819
29168,Domino's,London - Surrey Quays,Greater London,,London,51.492183,-0.045554,E02000813
28196,Domino's,London - Greenwich,Greater London,,London,51.485741,0.006289,
28686,Domino's,London - Wapping,Greater London,,London,51.509177,-0.063281,E02000889
28317,Domino's,London - Queen Street,City of London,,London,51.511647,-0.092974,E02000001
28769,Domino's,London - Woolwich,Greater London,,London,51.489131,0.066332,E02000323
29244,Domino's,London - Charlton,Greater London,,London,51.49087,0.04017,
28392,Domino's,London - Thamesmead,Greater London,,London,51.49873,0.089685,E02000314
28473,Domino's,London - Erith,Greater London,,London,51.48064,0.180635,E02000068
29172,Domino's,London - Canning Town,Greater London,,London,51.516452,0.010455,E02000743
28185,Domino's,London - Docklands,Greater London,,London,51.511031,-0.027968,E02000887
29120,Domino's,London - Beckton,Greater London,,London,51.521424,0.071062,E02000746
28176,Domino's,London - East Ham,Greater London,,London,51.531167,0.044577,E02000738
28350,Domino's,Grays,Grays,,East (England),51.484065,0.335732,
29079,Domino's,South Ockendon,Aveley,,East (England),51.509759,0.281748,
29314,Domino's,Chadwell St Mary,Chadwell St Mary,,East (England),51.48189,0.36981,
29224,Domino's,London - Dagenham Heathway,Greater London,,London,51.543,0.148,E02000014
28505,Domino's,London - Elm Park,Greater London,,London,51.549595,0.199873,E02000486
28612,Domino's,London - Upminster,Greater London,,London,51.553847,0.248214,E02000485
28273,Domino's,London - Barking,Greater London,,London,51.539741,0.08221,E02000017
28095,Domino's,London - Gidea Park,Greater London,,London,51.574757,0.205,E02000477
28036,Domino's,London - Chadwell Heath,Greater London,,London,51.572166,0.137909,E02000003
28490,Domino's,Corringham,Corringham,,East (England),51.524393,0.446423,
28909,Domino's,Basildon - Laindon,Basildon,,East (England),51.561591,0.421201,
28760,Domino's,Basildon - Pitsea,Basildon,,East (England),51.564275,0.504172,
28346,Domino's,Canvey Island,Castle Point,,East (England),51.52296,0.596076,
28882,Domino's,Benfleet,Castle Point,,East (England),51.567221967807,0.551867270471834,
28581,Domino's,London - Harold Park,Greater London,,London,51.603202,0.247975,E02000470
28172,Domino's,Hadleigh,Castle Point,,East (England),51.552437,0.610286,
29366,Domino's,Westcliff-on-Sea,Southend-on-Sea,,East (England),51.54115,0.69867,
28616,Domino's,Rayleigh,Rayleigh,,East (England),51.584829,0.60641,
28111,Domino's,Southend,Southend-on-Sea,,East (England),51.556144,0.700894,
28170,Domino's,Wickford,Wickford,,East (England),51.611637,0.520369,
28551,Domino's,Shoeburyness,Southend-on-Sea,,East (England),51.531402,0.782485,
28671,Domino's,Hockley,Rochford,,East (England),51.601511,0.656165,
29283,Domino's,Dursley,Dursley,,South West (England),51.688697,-2.36154,
28436,Domino's,Stroud,Stroud,,South West (England),51.746461,-2.218831,
28856,Domino's,Cirencester,Cotswold,,South West (England),51.706565,-1.959448,
29268,Domino's,Faringdon - Oxfordshire,Vale of White Horse,,South East (England),51.6587,-1.58338,
28648,Domino's,Carterton,West Oxfordshire,,South East (England),51.759571,-1.59485,
28048,Domino's,Abingdon,Vale of White Horse,,South East (England),51.669489,-1.291673,
28028,Domino's,Oxford - Cowley,Oxford,,South East (England),51.732407,-1.217143,
28160,Domino's,Oxford - Park End Street,Oxford,,South East (England),51.752501,-1.268819,
28050,Domino's,Oxford - Headington,Oxford,,South East (England),51.760197,-1.210245,
29245,Domino's,High Wycombe - Cressex,High Wycombe,,South East (England),51.617,-0.783,
28096,Domino's,High Wycombe - Central,High Wycombe,,South East (England),51.629674,-0.748561,
28889,Domino's,Thame,South Oxfordshire,,South East (England),51.74841,-0.980071,
28939,Domino's,Princes Risborough,Princes Risborough,,South East (England),51.723724,-0.830939,
28681,Domino's,High Wycombe - Hazlemere,Hazlemere,,South East (England),51.651453,-0.71352,
28224,Domino's,Chalfont St. Peter,Chalfont St Peter,,South East (England),51.606531,-0.559934,
28433,Domino's,Amersham,Amersham,,South East (England),51.677964,-0.605795,
28497,Domino's,Rickmansworth,Three Rivers,,East (England),51.636532,-0.483444,
29323,Domino's,Chesham,Chesham,,South East (England),51.72163,-0.61651,
28316,Domino's,London - Northwood,Greater London,,London,51.600989,-0.40913,E02000495
28717,Domino's,London - Pinner,Greater London,,London,51.598204,-0.393296,E02000441
27544,Domino's,London - Rayners Lane,Greater London,,London,51.573248,-0.371636,
29185,Domino's,London - Harrow,Greater London,,London,51.579258,-0.333676,E02000452
28024,Domino's,Watford,Watford,,East (England),51.6693,-0.398069,
27538,Domino's,London - Belmont,Greater London,,London,51.600693,-0.317429,
28594,Domino's,Bushey Heath,Hertsmere,,East (England),51.634823,-0.343078,
28709,Domino's,London - Preston Road,Greater London,,London,51.571075,-0.294569,E02000099
28193,Domino's,London - Wembley,Greater London,,London,51.553763,-0.291394,E02000112
28731,Domino's,London - Stanmore,Greater London,,London,51.616615,-0.313431,E02000433
28483,Domino's,Abbots Langley,Three Rivers,,East (England),51.698598,-0.425441,
27537,Domino's,London - Edgware,Greater London,,London,51.611034,-0.279313,E02000041
29155,Domino's,Radlett,Hertsmere,,East (England),51.679851,-0.330706,
28675,Domino's,London - Willesden,Greater London,,London,51.547178,-0.227881,E02000114
28014,Domino's,London - Hendon,Greater London,,London,51.582935,-0.227712,E02000057
29157,Domino's,London - Mill Hill,Greater London,,London,51.616211,-0.245089,E02000039
28743,Domino's,London - Golders Green,Greater London,,London,51.578301,-0.207962,E02000060
28012,Domino's,London - Maida Vale,City of Westminster,,London,51.527449,-0.197461,E02000964
28015,Domino's,London - West End Lane,Greater London,,London,51.551657,-0.191642,E02000175
28018,Domino's,London - Bayswater,City of Westminster,,London,51.518749,-0.197228,E02000973
28376,Domino's,Borehamwood,Hertsmere,,East (England),51.657835,-0.271939,
28016,Domino's,London - Finchley Road,Greater London,,London,51.54971,-0.181421,E02000173
27536,Domino's,London - Ballards Lane,Greater London,,London,51.602012,-0.19307,E02000046
28538,Domino's,London - Paddington,City of Westminster,,London,51.521741,-0.172142,E02000968
27539,Domino's,London - East Finchley,Greater London,,London,51.589623,-0.163627,E02000052
29011,Domino's,London - Kentish Town,Greater London,,London,51.547728,-0.141043,E02000174
29191,Domino's,London - Camden,Greater London,,London,51.5354,-0.139019,E02000186
29284,Domino's,London - Highgate,Greater London,,London,51.568,-0.13874,E02000557
28413,Domino's,London - Foley Street,City of Westminster,,London,51.519221,-0.139927,E02000972
28267,Domino's,London - Holloway Road,Greater London,,London,51.561227,-0.123838,E02000556
28560,Domino's,London - High Holborn,Greater London,,London,51.516387,-0.125139,E02000193
28375,Domino's,London - Highbury,Greater London,,London,51.556239,-0.110878,E02000558
28360,Domino's,London - Crouch End,Greater London,,London,51.582138,-0.119345,E02000430
28110,Domino's,London - Islington,Greater London,,London,51.532915,-0.109378,E02000574
28808,Domino's,London - Islington Green,Greater London,,London,51.539502,-0.09741,E02000571
29088,Domino's,London - Old Street,Greater London,,London,51.523915,-0.096489,E02000575
29201,Domino's,London - Stoke Newington,Greater London,,London,51.558947,-0.073995,E02000358
29193,Domino's,London - Hoxton,Greater London,,London,51.531363,-0.080394,
28454,Domino's,London - Hackney,Greater London,,London,51.543778,-0.055093,E02000361
28189,Domino's,London - Stamford Hill,Greater London,,London,51.573816,-0.072023,E02000345
28971,Domino's,London - Clapton,Greater London,,London,51.552245,-0.052626,E02000361
29002,Domino's,London - Bethnal Green,Greater London,,London,51.52655,-0.065974,E02000872
29128,Domino's,London - South Tottenham,Greater London,,London,51.588655,-0.070711,E02000407
28381,Domino's,London - Bow,Greater London,,London,51.532233,-0.034056,E02000866
29253,Domino's,London - Leyton Mills,Greater London,,London,51.5605,-0.00921,E02000919
28180,Domino's,London - Tottenham,Greater London,,London,51.606131,-0.068359,
28927,Domino's,London - Bowes Park,Greater London,,London,51.609482,-0.110273,E02000312
28087,Domino's,London - Leyton Bakers Arms,Greater London,,London,51.574653,-0.011141,E02000914
28727,Domino's,London - Stratford,Greater London,,London,51.542103,0.006576,E02000725
28529,Domino's,London - Palmers Green,Greater London,,London,51.619479,-0.106724,E02000305
28719,Domino's,London - Edmonton,Greater London,,London,51.624859,-0.05923,E02000306
28995,Domino's,London - Wanstead,Greater London,,London,51.575643,0.027622,E02000764
28338,Domino's,London - Southgate,Greater London,,London,51.63227,-0.142407,E02000032
28285,Domino's,London - Chingford,Greater London,,London,51.619541,-0.016909,E02000899
28055,Domino's,London - Gants Hill,Greater London,,London,51.57882,0.06384,E02000765
28611,Domino's,London - Barkingside,Greater London,,London,51.58982,0.082016,E02000756
28162,Domino's,London - Woodford Green,Greater London,,London,51.60799,0.0370412,E02000754
29156,Domino's,London - Chigwell,Epping Forest,,East (England),51.618637,0.074505,
28678,Domino's,London - Collier Row,Greater London,,London,51.598923,0.160815,E02000468
28586,Domino's,London - Loughton,Epping Forest,,East (England),51.650048,0.057091,
28136,Domino's,Brentwood,Brentwood,,East (England),51.619827,0.299249,
28915,Domino's,Hutton,Brentwood,,East (England),51.633391,0.355846,
28716,Domino's,Billericay,Billericay,,East (England),51.627988,0.418986,
28710,Domino's,Epping,Epping Forest,,East (England),51.697635,0.109072,
28665,Domino's,Chelmsford - South,Chelmsford,,East (England),51.714087,0.488433,
28617,Domino's,South Woodham Ferrers,Chelmsford,,East (England),51.645081,0.621372,
28098,Domino's,Chelmsford - Central,Chelmsford,,East (England),51.735543,0.46034,
29036,Domino's,Chelmsford - Beaulieu Square,Chelmsford,,East (England),51.759835,0.499557,
28979,Domino's,Burnham on Crouch,Burnham-on-Crouch,,East (England),51.626695,0.815434,
28589,Domino's,Maldon,Maldon,,East (England),51.736288,0.679926,
29456,Domino's,Cinderford,Forest of Dean,,South West (England),51.824924,-2.49934,
28356,Domino's,Gloucester - Quedgeley,Gloucester,,South West (England),51.826038,-2.275266,
28918,Domino's,Gloucester - Barnwood,Gloucester,,South West (England),51.862538,-2.215266,
28103,Domino's,Gloucester - Central,Gloucester,,South West (England),51.873299,-2.246604,
28682,Domino's,Gloucester - Brockworth,Tewkesbury,,South West (England),51.847937,-2.171517,
28832,Domino's,Cheltenham - Bath Road,Cheltenham,,South West (England),51.889677,-2.079064,
28937,Domino's,Cheltenham - Gloucester Road,Cheltenham,,South West (England),51.898041,-2.098715,
28075,Domino's,Cheltenham,Cheltenham,,South West (England),51.903335,-2.079463,
28414,Domino's,Witney,West Oxfordshire,,South East (England),51.7921,-1.46493,
28498,Domino's,Oxford - Kidlington,Cherwell,,South East (England),51.823778,-1.288052,
29048,Domino's,Bicester - Kingsmere,Cherwell,,South East (England),51.893428,-1.169329,
28242,Domino's,Bicester,Cherwell,,South East (England),51.906571,-1.150059,
29276,Domino's,Aylesbury - Berryfields,Aylesbury,,South East (England),51.836,-0.851,
28091,Domino's,Aylesbury - Cambridge Street,Aylesbury,,South East (England),51.818646,-0.810872,
28855,Domino's,Aylesbury - Jansel Square,Aylesbury,,South East (England),51.805986,-0.784873,
28345,Domino's,Berkhamsted,Dacorum,,East (England),51.762889,-0.571625,
28090,Domino's,Hemel Hempstead - Central,Dacorum,,East (England),51.750443,-0.473519,
28795,Domino's,Hemel Hempstead - East,Dacorum,,East (England),51.75365,-0.437461,
28076,Domino's,St Albans,St Albans,,East (England),51.750468,-0.337033,
29301,Domino's,London Colney,St Albans,,East (England),51.731,-0.306,
28660,Domino's,Harpenden,St Albans,,East (England),51.815214,-0.353177,
28230,Domino's,Dunstable,Dunstable,,East (England),51.8857274,-0.5180915,
29195,Domino's,Dunstable - Katherine Drive,Dunstable,,East (England),51.892803,-0.497912,
28007,Domino's,Luton - Central,Luton,,East (England),51.883047,-0.420139,
28484,Domino's,Hatfield,Welwyn Hatfield,,East (England),51.763665,-0.240844,
29295,Domino's,Houghton Regis,Houghton Regis,,East (England),51.910673,-0.540722,
28248,Domino's,Potters Bar,Hertsmere,,East (England),51.696694,-0.191606,
28140,Domino's,London - Barnet,Greater London,,London,51.652724,-0.198809,E02000024
28166,Domino's,Welwyn Garden City,Welwyn Hatfield,,East (England),51.800221,-0.206095,
29199,Domino's,Cuffley,Welwyn Hatfield,,East (England),51.707726,-0.112593,
28917,Domino's,Luton - Wigmore Lane,Luton,,East (England),51.897744,-0.389399,
28676,Domino's,London - Enfield,Greater London,,London,51.66408,-0.082319,E02000280
28104,Domino's,London - Winchmore Hill,Greater London,,London,51.636829,-0.082039,E02000297
28198,Domino's,Cheshunt,Broxbourne,,East (England),51.702438,-0.035843,
28282,Domino's,London - Enfield Wash,Greater London,,London,51.670513,-0.041021,E02000278
28191,Domino's,Hertford,East Hertfordshire,,East (England),51.797808,-0.075184,
28779,Domino's,Waltham Abbey,Epping Forest,,East (England),51.687065,-0.000637,
28296,Domino's,Hoddesdon,Hoddesdon,,East (England),51.759978,-0.0117,
28749,Domino's,Ware,East Hertfordshire,,East (England),51.810233,-0.028752,
29035,Domino's,Harlow - Great Parndon,Harlow,,East (England),51.753209,0.092,
28679,Domino's,Harlow - Old Town,Harlow,,East (England),51.782233,0.132882,
29324,Domino's,Sawbridgeworth,East Hertfordshire,,East (England),51.815826,0.14834,
28367,Domino's,Bishop's Stortford,East Hertfordshire,,East (England),51.873258,0.158971,
28829,Domino's,Great Dunmow,Uttlesford,,East (England),51.868503,0.366878,
29052,Domino's,Stansted,Uttlesford,,East (England),51.904979,0.194572,
29303,Domino's,Great Notley,Braintree,,East (England),51.857071,0.522628,
28395,Domino's,Witham,Witham,,East (England),51.801085,0.629834,
28197,Domino's,Braintree,Braintree,,East (England),51.880437,0.562842,
28908,Domino's,Colchester - Stanway,Colchester,,East (England),51.878314,0.844356,
28652,Domino's,Colchester - University Quays,Colchester,,East (England),51.879245,0.932271,
28127,Domino's,Colchester,Colchester,,East (England),51.894437,0.896266,
28526,Domino's,Clacton,Clacton-on-Sea,,East (England),51.789398,1.150423,
29127,Domino's,Great Clacton,Clacton-on-Sea,,East (England),51.805463,1.155439,
28948,Domino's,Ross on Wye,Ross-on-Wye,,West Midlands (England),51.913805,-2.582317,
28354,Domino's,Hereford,Hereford,,West Midlands (England),52.046321,-2.724221,
28695,Domino's,Tewkesbury,Tewkesbury,,South West (England),51.995103,-2.15631,
29287,Domino's,Bishops Cleeve,Bishop's Cleeve,,South West (England),51.952,-2.068,
28687,Domino's,Brackley,Brackley,,East Midlands (England),52.02946,-1.146946,
28071,Domino's,Banbury,Cherwell,,South East (England),52.059126,-1.340052,
29005,Domino's,Buckingham,Buckingham,,South East (England),51.999596,-0.987644,
28492,Domino's,Milton Keynes - Oxley Park,Milton Keynes,,South East (England),52.007546,-0.804217,
29248,Domino's,Newton Leys,Milton Keynes,,South East (England),51.974362,-0.732638,
28212,Domino's,Leighton Buzzard,Leighton Buzzard,,East (England),51.917121,-0.663157,
28257,Domino's,Milton Keynes - Bletchley,Milton Keynes,,South East (England),51.997571,-0.733629,
28008,Domino's,Milton Keynes - Oldbrook,Milton Keynes,,South East (England),52.02924,-0.76131,
29043,Domino's,Stony Stratford,Stony Stratford,,South East (England),52.0561,-0.850701,
28335,Domino's,Milton Keynes - Kingston,Milton Keynes,,South East (England),52.03684,-0.691106,
28378,Domino's,Milton Keynes - Wolverton,Milton Keynes,,South East (England),52.060915,-0.810462,
28441,Domino's,Luton - North,Leagrave,,East (England),51.916103,-0.469748,
29159,Domino's,Luton - Riddy Lane,Warden Hill,,East (England),51.906464,-0.424812,
29203,Domino's,Milton Keynes - Brooklands,Milton Keynes,,South East (England),52.046689,-0.678466,
28548,Domino's,Flitwick,Flitwick,,East (England),52.002658,-0.496125,
28640,Domino's,Hitchin,North Hertfordshire,,East (England),51.952829,-0.275882,
28159,Domino's,Stevenage - Old Town,Stevenage,,East (England),51.909648,-0.206888,
28837,Domino's,Stevenage - East,Stevenage,,East (England),51.913866,-0.171126,
28190,Domino's,Letchworth,Baldock,,East (England),51.978961,-0.22545,
28822,Domino's,Shefford,Shefford,,East (England),52.038301,-0.335266,
29443,Domino's,Stotfold,Stotfold,,East (England),52.014007,-0.227232,
28791,Domino's,Royston,North Hertfordshire,,East (England),52.048042,-0.023193,
28867,Domino's,Saffron Walden,Uttlesford,,East (England),52.0233106,0.2424462,
28721,Domino's,Halstead,Halstead,,East (England),51.944558,0.637323,
28576,Domino's,Sudbury,Babergh,,East (England),52.040654,0.729924,
28907,Domino's,Harwich,Harwich,,East (England),51.941158,1.258086,
28643,Domino's,Felixstowe,East Suffolk,,East (England),51.958718,1.346407,
28128,Domino's,Ipswich - Felixstowe Road,Ipswich,,East (England),52.048788,1.178302,
28205,Domino's,Ipswich - Bramford Road,Ipswich,,East (England),52.062903,1.138929,
28247,Domino's,Malvern,Malvern Hills,,West Midlands (England),52.126692,-2.31601,
29384,Domino's,Worcester - South,Worcester,,West Midlands (England),52.176124,-2.213932,
28171,Domino's,Worcester,Worcester,,West Midlands (England),52.186803,-2.23552,
29447,Domino's,Pershore,Wychavon,,West Midlands (England),52.111403,-2.075712,
28471,Domino's,Evesham,Wychavon,,West Midlands (England),52.094606,-1.947152,
28836,Domino's,Worcester - Warndon,Worcester,,West Midlands (England),52.203262,-2.190283,
28575,Domino's,Stratford Upon Avon,Stratford-on-Avon,,West Midlands (England),52.20185,-1.716861,
28740,Domino's,Towcester,Towcester,,East Midlands (England),52.130931,-0.987819,
28009,Domino's,Newport Pagnell,Newport Pagnell,,South East (England),52.084174,-0.728656,
28402,Domino's,Northampton - Wootton,East Hunsbury,,East Midlands (England),52.201737,-0.892793,
29060,Domino's,Stewartby,Stewartby,,East (England),52.074417,-0.509844,
28389,Domino's,Bedford - Kempston,Kempston,,East (England),52.11734,-0.496012,
28164,Domino's,Bedford - Central,Bedford,,East (England),52.135783,-0.473035,
29151,Domino's,Bedford - Elms Parc,Goldington,,East (England),52.145125,-0.421016,
28842,Domino's,Biggleswade,Biggleswade,,East (England),52.087193,-0.26019,
29275,Domino's,Sandy,Sandy,,East (England),52.129,-0.287,
28934,Domino's,Cambridge - Sawston,South Cambridgeshire,,East (England),52.121743,0.169637,
28811,Domino's,Cambridge - Cherry Hinton,Cambridge,,East (England),52.187838,0.173737,
28101,Domino's,Cambridge - Central,Cambridge,,East (England),52.197271,0.129019,
28527,Domino's,Haverhill,West Suffolk,,East (England),52.088315,0.410363,
28777,Domino's,Stowmarket,Stowmarket,,East (England),52.186624,0.997238,
28422,Domino's,Ipswich - Kesgrave,East Suffolk,,East (England),52.067706,1.259047,
29347,Domino's,Ludlow,Ludford,,West Midlands (England),52.364851,-2.695126,
28554,Domino's,Droitwich,Wychavon,,West Midlands (England),52.267533,-2.153919,
28899,Domino's,Stourport-on-Severn,Wyre Forest,,West Midlands (England),52.340309,-2.278857,
28525,Domino's,Bromsgrove,Bromsgrove,,West Midlands (England),52.336839,-2.058523,
29206,Domino's,Studley,Stratford-on-Avon,,West Midlands (England),52.272927,-1.894336,
28052,Domino's,Redditch,Redditch,,West Midlands (England),52.305787,-1.938393,
28051,Domino's,Warwick,Warwick,,West Midlands (England),52.28379,-1.581121,
28452,Domino's,Leamington Spa,Royal Leamington Spa,,West Midlands (England),52.290438,-1.532885,
28689,Domino's,Kenilworth,Kenilworth,,West Midlands (England),52.347226,-1.558664,
28293,Domino's,Daventry,Daventry,,East Midlands (England),52.25655,-1.16174,
29264,Domino's,Rugby - Hillmorton,Rugby,,West Midlands (England),52.358,-1.218,
28157,Domino's,Rugby,Rugby,,West Midlands (England),52.36498,-1.29599,
29169,Domino's,Northampton - Duston,Upton,,East Midlands (England),52.236,-0.945,
28020,Domino's,Northampton - Central,Northampton,,East Midlands (England),52.23575,-0.90068,
28431,Domino's,Northampton - Kingsthorpe,Kingsthorpe,,East Midlands (England),52.2636697,-0.8996149,
29257,Domino's,Northampton - Moulton,Northampton,,East Midlands (England),52.272963,-0.865155,
28557,Domino's,Northampton - Weston Favell,Northampton,,East Midlands (England),52.256634,-0.837456,
29081,Domino's,Wellingborough - South,Wellingborough,,East Midlands (England),52.294034,-0.682911,
28235,Domino's,Wellingborough,Wellingborough,,East Midlands (England),52.317483,-0.704601,
28416,Domino's,Rushden,Rushden,,East Midlands (England),52.288097,-0.597946,
29212,Domino's,Burton Latimer,Burton Latimer,,East Midlands (England),52.364067,-0.679335,
28253,Domino's,St Neots,Huntingdonshire,,East (England),52.229298,-0.265829,
28628,Domino's,Cambourne,South Cambridgeshire,,East (England),52.218573,-0.070179,
28256,Domino's,Huntingdon,Huntingdonshire,,East (England),52.331869,-0.183828,
28598,Domino's,St Ives,Huntingdonshire,,East (England),52.322737,-0.068732,
28632,Domino's,Cambridge - North,Cambridge,,East (England),52.217343,0.110889,
28508,Domino's,Newmarket,Newmarket,,East (England),52.244453,0.4047872,
29034,Domino's,Soham,East Cambridgeshire,,East (England),52.334475,0.337151,
28001,Domino's,Mildenhall,Mildenhall,,East (England),52.342982,0.511142,
28427,Domino's,Bury St Edmunds,West Suffolk,,East (England),52.250383,0.71158,
28314,Domino's,Kidderminster,Wyre Forest,,West Midlands (England),52.389566,-2.247002,
28219,Domino's,Stourbridge,Dudley,,West Midlands (England),52.459397,-2.146416,E02002030
28428,Domino's,Birmingham - Rubery,Bromsgrove,,West Midlands (England),52.393814,-2.016391,
28373,Domino's,Halesowen,Dudley,,West Midlands (England),52.453063,-2.061444,E02002038
29133,Domino's,Birmingham - Northfield,Birmingham,,West Midlands (England),52.413612,-1.972511,E02001945
29432,Domino's,Cradley Heath,Sandwell,,West Midlands (England),52.470543,-2.08486,E02002080
28854,Domino's,Birmingham - Kings Norton,Birmingham,,West Midlands (England),52.415993,-1.929674,E02001942
28182,Domino's,Birmingham - Oldbury,Sandwell,,West Midlands (England),52.463355,-1.998184,E02002079
28552,Domino's,Kingswinford,Brierley Hill,,West Midlands (England),52.508106,-2.155069,E02002011
28954,Domino's,Rowley Regis,Sandwell,,West Midlands (England),52.488954,-2.03316,E02002069
29093,Domino's,Birmingham - Maypole,Birmingham,,West Midlands (England),52.410689,-1.886743,E02001947
28898,Domino's,Birmingham - Selly Oak,Birmingham,,West Midlands (England),52.44537,-1.93223,E02001922
28175,Domino's,Birmingham - Shirley,Solihull,,West Midlands (England),52.41371,-1.82881,
28447,Domino's,Birmingham - Hall Green,Birmingham,,West Midlands (England),52.438336,-1.847398,E02001923
28295,Domino's,Birmingham - Edgbaston,Birmingham,,West Midlands (England),52.473176,-1.922131,
29149,Domino's,Birmingham - Smethwick,Sandwell,,West Midlands (England),52.486093,-1.956511,
29003,Domino's,Birmingham - Solihull Central,Solihull,,West Midlands (England),52.414643,-1.78165,
28677,Domino's,Birmingham - Central,Birmingham,,West Midlands (England),52.487851,-1.905612,
28466,Domino's,Dudley,Dudley,,West Midlands (England),52.509524,-2.083861,E02002014
28531,Domino's,Birmingham - Sheldon,Solihull,,West Midlands (England),52.443238,-1.784884,E02002092
28093,Domino's,Birmingham - Yardley,Birmingham,,West Midlands (England),52.46596,-1.80962,E02001893
29053,Domino's,Balsall Common,Solihull,,West Midlands (England),52.392195,-1.649556,
29359,Domino's,Birmingham - Marston Green,Solihull,,West Midlands (England),52.46754,-1.75255,E02002089
28517,Domino's,Birmingham - Castle Bromwich,Birmingham,,West Midlands (England),52.500997,-1.771504,E02001872
28097,Domino's,Coventry - Fletchamstead Highway,Coventry,,West Midlands (England),52.403769,-1.559558,E02001989
29047,Domino's,Coventry - Holyhead Road,Coventry,,West Midlands (England),52.41616,-1.536865,E02001974
28845,Domino's,Coventry - Cheylesmore,Coventry,,West Midlands (England),52.394484,-1.505393,E02001994
28738,Domino's,Coventry - City Centre,Coventry,,West Midlands (England),52.407765,-1.495187,E02001985
28279,Domino's,Coventry - Jubilee Crescent,Coventry,,West Midlands (England),52.430008,-1.517145,E02001968
28530,Domino's,Coventry - Ernesford Grange,Coventry,,West Midlands (England),52.393836,-1.456345,E02001992
29041,Domino's,Coventry - Henley Road,Coventry,,West Midlands (England),52.43614,-1.474079,E02001961
28574,Domino's,Bedworth,Nuneaton and Bedworth,,West Midlands (England),52.47963,-1.472401,
28895,Domino's,Rugby - Junction One Retail Park,Rugby,,West Midlands (England),52.386032,-1.258536,
29099,Domino's,Nuneaton - Whitestone,Nuneaton and Bedworth,,West Midlands (England),52.505116,-1.434572,
28913,Domino's,Lutterworth,Harborough,,East Midlands (England),52.45499,-1.2004,
29278,Domino's,Desborough,Desborough,,East Midlands (England),52.442999,-0.819079,
28602,Domino's,Market Harborough,Harborough,,East Midlands (England),52.483393,-0.898462,
28142,Domino's,Kettering,Kettering,,East Midlands (England),52.404321,-0.726506,
29222,Domino's,Great Oakley,Great Oakley,,East Midlands (England),52.458517,-0.735017,
29008,Domino's,Thrapston,Thrapston,,East Midlands (England),52.396843,-0.536983,
28504,Domino's,Corby,Corby,,East Midlands (England),52.50846,-0.705218,
29353,Domino's,Ramsey,Huntingdonshire,,East (England),52.448892,-0.106471,
28618,Domino's,Ely,Ely,,East (England),52.398961,0.258794,
29316,Domino's,Brandon,Brandon,,East (England),52.447925,0.623832,
28637,Domino's,Thetford,Breckland,,East (England),52.413113,0.749533,
29348,Domino's,Diss,South Norfolk,,East (England),52.37464,1.1091,
29377,Domino's,Long Stratton,South Norfolk,,East (England),52.485671,1.233162,
28949,Domino's,Beccles,East Suffolk,,East (England),52.456239,1.565153,
28464,Domino's,Lowestoft,East Suffolk,,East (England),52.482028,1.752528,
29439,Domino's,Bridgnorth,Bridgnorth,,West Midlands (England),52.526331,-2.397581,
28608,Domino's,Telford - South,Madeley,,West Midlands (England),52.63575,-2.450369,
28830,Domino's,Wolverhampton - Penn,Wolverhampton,,West Midlands (England),52.559998,-2.153637,
28815,Domino's,Wolverhampton - Coseley,Coseley,,West Midlands (England),52.540422,-2.087914,E02002003
28023,Domino's,Wolverhampton - Tettenhall Road,Wolverhampton,,West Midlands (England),52.596012,-2.158284,
29280,Domino's,Codsall & Bilbrook,South Staffordshire,,West Midlands (England),52.6267605,-2.1796636,
28813,Domino's,Birmingham - Wednesbury,Sandwell,,West Midlands (England),52.555068,-2.022945,E02002047
28577,Domino's,Willenhall,Willenhall,,West Midlands (England),52.583989,-2.053992,
28520,Domino's,Wolverhampton - Blackhalve Lane,Wolverhampton,,West Midlands (England),52.613348,-2.098477,
28929,Domino's,Walsall - Broadway,Walsall,,West Midlands (England),52.56822,-1.979562,
29089,Domino's,Birmingham - Great Barr,Sandwell,,West Midlands (England),52.545201,-1.933484,E02002053
28116,Domino's,Walsall,Bloxwich,,West Midlands (England),52.591689,-1.98549,
28320,Domino's,Birmingham - Kingstanding,Birmingham,,West Midlands (England),52.552637,-1.885516,E02001833
29100,Domino's,Birmingham - Erdington,Birmingham,,West Midlands (England),52.521389,-1.844456,E02001857
28053,Domino's,Wylde Green,Birmingham,,West Midlands (England),52.536346,-1.827197,E02001844
28448,Domino's,Aldridge,Aldridge,,West Midlands (England),52.60422,-1.918155,
28562,Domino's,Mere Green,Birmingham,,West Midlands (England),52.587196,-1.830431,E02001828
29332,Domino's,Great Wyrley,South Staffordshire,,West Midlands (England),52.65786,-2.0166,
29311,Domino's,Walsall - Brownhills,Brownhills,,West Midlands (England),52.646065,-1.931287,
29121,Domino's,Tamworth - Dosthill,Tamworth,,West Midlands (England),52.600026,-1.68378,
28825,Domino's,Nuneaton - Tuttle Hill,Nuneaton and Bedworth,,West Midlands (England),52.532701,-1.493362,
29238,Domino's,Polesworth,North Warwickshire,,West Midlands (England),52.61656,-1.61689,
28054,Domino's,Nuneaton - Central,Nuneaton and Bedworth,,West Midlands (England),52.523805,-1.470707,
28145,Domino's,Tamworth,Tamworth,,West Midlands (England),52.636335,-1.68849,
28294,Domino's,Hinckley,Hinckley and Bosworth,,East Midlands (England),52.53937,-1.37551,
28900,Domino's,Earl Shilton,Hinckley and Bosworth,,East Midlands (England),52.575895,-1.317099,
29362,Domino's,Broughton Astley,Harborough,,East Midlands (England),52.53432,-1.22997,
28960,Domino's,Leicester - Blaby,Blaby,,East Midlands (England),52.574902,-1.163984,
28380,Domino's,Leicester - Wigston,Oadby and Wigston,,East Midlands (England),52.588129,-1.105006,
28179,Domino's,Leicester - Narborough Road,Leicester,,East Midlands (England),52.622485,-1.154636,
28964,Domino's,Leicester - Oadby,Oadby and Wigston,,East Midlands (England),52.594728,-1.071124,
28919,Domino's,Leicester - De Montfort,Leicester,,East Midlands (England),52.628573,-1.143248,
28920,Domino's,Leicester - Glenfield,Glenfield,,East Midlands (England),52.645791,-1.193849,
28077,Domino's,Leicester - London Road,Leicester,,East Midlands (England),52.62691,-1.118814,
28892,Domino's,Leicester - Uppingham Road,Leicester,,East Midlands (England),52.641986,-1.090518,
28401,Domino's,Leicester - Belgrave Boulevard,Leicester,,East Midlands (England),52.666101,-1.137826,
28627,Domino's,Peterborough - Hampton,Peterborough,,East (England),52.532825,-0.276856,
28774,Domino's,Stamford,South Kesteven,,East Midlands (England),52.653471,-0.47586,
28319,Domino's,Peterborough - South,Peterborough,,East (England),52.562537,-0.261345,
28002,Domino's,Peterborough - Central,Peterborough,,East (England),52.590683,-0.283078,
28945,Domino's,Peterborough - East,Peterborough,,East (England),52.56958,-0.24221,
28419,Domino's,Peterborough - North,Peterborough,,East (England),52.620877,-0.272147,
29235,Domino's,Whittlesey,Fenland,,East (England),52.5569164555712,-0.128311281322742,
28725,Domino's,March,Fenland,,East (England),52.550566,0.087778,
29343,Domino's,Downham Market,King's Lynn and West Norfolk,,East (England),52.60291,0.37336,
29266,Domino's,Watton,Breckland,,East (England),52.570388,0.857531,
29302,Domino's,Swaffham,Breckland,,East (England),52.648671,0.688806,
29271,Domino's,Attleborough,Breckland,,East (England),52.517,1.016,
28928,Domino's,Wymondham,South Norfolk,,East (England),52.569439,1.114905,
28565,Domino's,Norwich - West,Norwich,,East (England),52.621928,1.262319,
29351,Domino's,Norwich - Bowthorpe,Norwich,,East (England),52.637373,1.216694,
28287,Domino's,Norwich - North,Norwich,,East (England),52.639322,1.290876,
28747,Domino's,Norwich - East,Norwich,,East (England),52.636604,1.326019,
28926,Domino's,Gorleston,Gorleston-on-Sea,,East (England),52.57972,1.728375,
28634,Domino's,Great Yarmouth,Gorleston-on-Sea,,East (England),52.605311,1.728644,
28412,Domino's,Shrewsbury,Shrewsbury,,West Midlands (England),52.707604,-2.756049,
29039,Domino's,Shrewsbury - Battlefield,Shrewsbury,,West Midlands (England),52.74001,-2.722685,
28776,Domino's,Telford - Wellington,Wellington,,West Midlands (England),52.696546,-2.500544,
29310,Domino's,Telford - Lawley,Dawley,,West Midlands (England),52.676836,-2.481796,
28155,Domino's,Telford - North,Oakengates,,West Midlands (England),52.689622,-2.447559,
29386,Domino's,Telford - Trench,Wrockwardine Wood and Trench,,West Midlands (England),52.71389,-2.45348,
29349,Domino's,Newport - Shropshire,Newport,,West Midlands (England),52.76932,-2.37915,
28207,Domino's,Cannock,Cannock Chase,,West Midlands (England),52.688906,-2.032894,
28635,Domino's,Burntwood,Lichfield,,West Midlands (England),52.681296,-1.934172,
29007,Domino's,Stafford - Weeping Cross,Stafford,,West Midlands (England),52.791746,-2.078908,
28236,Domino's,Stafford,Stafford,,West Midlands (England),52.803513,-2.117848,
28302,Domino's,Lichfield,Lichfield,,West Midlands (England),52.68182,-1.828631,
28705,Domino's,Rugeley,Cannock Chase,,West Midlands (England),52.751774,-1.940848,
29338,Domino's,Lichfield - Trent Valley,Lichfield,,West Midlands (England),52.689852,-1.799274,
28369,Domino's,Swadlincote,South Derbyshire,,East Midlands (England),52.775771,-1.554925,
28126,Domino's,Burton-Upon-Trent,East Staffordshire,,West Midlands (England),52.803613,-1.631977,
29282,Domino's,Ashby-de-la-Zouch,North West Leicestershire,,East Midlands (England),52.7467243556394,-1.47241920359617,
28290,Domino's,Coalville,North West Leicestershire,,East Midlands (England),52.723236,-1.374521,
29051,Domino's,Loughborough - South,Charnwood,,East Midlands (England),52.75899,-1.20722,
28944,Domino's,Mountsorrel,Charnwood,,East Midlands (England),52.731928,-1.143381,
28039,Domino's,Loughborough,Charnwood,,East Midlands (England),52.77727,-1.216841,
28888,Domino's,Oakham,Oakham,,East Midlands (England),52.670808,-0.73348,
28542,Domino's,Melton Mowbray,Melton,,East Midlands (England),52.764452,-0.884412,
28962,Domino's,Market Deeping,South Kesteven,,East Midlands (England),52.675362,-0.316505,
29279,Domino's,Bourne,South Kesteven,,East Midlands (England),52.767556,-0.375333,
28274,Domino's,Spalding,South Holland,,East Midlands (England),52.787156,-0.155839,
28434,Domino's,Wisbech,Fenland,,East (England),52.667724,0.161771,
29270,Domino's,Long Sutton,South Holland,,East Midlands (England),52.78433,0.12042,
29217,Domino's,King's Lynn - Hardwick,King's Lynn and West Norfolk,,East (England),52.74095,0.41184,
28573,Domino's,King's Lynn,King's Lynn and West Norfolk,,East (England),52.762152,0.399571,
28770,Domino's,Dereham,Breckland,,East (England),52.682529,0.935098,
29038,Domino's,Norwich - Drayton,Broadland,,East (England),52.676322,1.223198,
29134,Domino's,Market Drayton,Market Drayton,,West Midlands (England),52.905298,-2.484834,
28932,Domino's,Staffordshire - Stone,Stone,,West Midlands (England),52.901781,-2.145813,
28880,Domino's,Uttoxeter,East Staffordshire,,West Midlands (England),52.898396,-1.863148,
29225,Domino's,Burton-Upon-Trent - Horninglow,East Staffordshire,,West Midlands (England),52.821536,-1.641441,
28938,Domino's,Derby - Hilton,South Derbyshire,,East Midlands (England),52.871462,-1.628967,
29050,Domino's,Derby - Mickleover,Derby,,East Midlands (England),52.904164,-1.544296,
28329,Domino's,Derby - Stenson Road,Derby,,East Midlands (England),52.893111,-1.495717,
29313,Domino's,Derby - Chellaston,Derby,,East Midlands (England),52.86845,-1.43797,
28031,Domino's,Derby - Alvaston,Derby,,East Midlands (England),52.896589,-1.427743,
29049,Domino's,Castle Donington,North West Leicestershire,,East Midlands (England),52.841662,-1.340375,
28786,Domino's,Derby - Chaddesden,Derby,,East Midlands (England),52.923691,-1.43813,
28059,Domino's,Derby - Allestree,Derby,,East Midlands (England),52.944112,-1.496913,
28013,Domino's,Nottingham - Long Eaton,Erewash,,East Midlands (England),52.892508,-1.290692,
29056,Domino's,Nottingham - Stapleford,Broxtowe,,East Midlands (England),52.927256,-1.278803,
28858,Domino's,Nottingham - Silverdale,Rushcliffe,,East Midlands (England),52.918807,-1.153226,
28042,Domino's,Nottingham - Beeston,Broxtowe,,East Midlands (England),52.939221,-1.217286,
28232,Domino's,Nottingham - West Bridgford,Rushcliffe,,East Midlands (England),52.938066,-1.132584,
28622,Domino's,Nottingham - City Centre,City of Nottingham,,East Midlands (England),52.955999,-1.18306,
29239,Domino's,Bingham,Rushcliffe,,East Midlands (England),52.95216,-0.95046,
28333,Domino's,Grantham,South Kesteven,,East Midlands (England),52.904273,-0.635452,
29378,Domino's,Kirton,Boston,,East Midlands (England),52.923499,-0.053296,
29455,Domino's,Hunstanton,King's Lynn and West Norfolk,,East (England),52.938722,0.489806,
29290,Domino's,Whitchurch - Shropshire,Whitchurch,,West Midlands (England),52.96943,-2.68415,
28956,Domino's,Nantwich,Nantwich,,North West (England),53.0686,-2.521285,
28303,Domino's,Crewe,Crewe,,North West (England),53.088924,-2.438027,
28706,Domino's,Stoke-On-Trent - Trent Vale,Stoke-on-Trent,,West Midlands (England),52.987777,-2.204061,
28357,Domino's,Newcastle-Under-Lyme,Newcastle-under-Lyme,,West Midlands (England),53.011429,-2.223479,
28351,Domino's,Stoke-on-Trent - Hanley,Stoke-on-Trent,,West Midlands (England),53.019754,-2.16182,
28026,Domino's,Stoke-on-Trent - Meir Hay,Stoke-on-Trent,,West Midlands (England),52.991567,-2.121402,
29269,Domino's,Stoke-on-Trent - Sandon Road,Stoke-on-Trent,,West Midlands (England),52.9770021,-2.1047452,
28765,Domino's,Stoke-on-Trent - Abbey Hulton,Stoke-on-Trent,,West Midlands (England),53.033862,-2.145216,
28361,Domino's,Stoke-on-Trent - Sandyford,Stoke-on-Trent,,West Midlands (England),53.069963,-2.215248,
28941,Domino's,Alsager,Alsager,,North West (England),53.096701,-2.302816,
29233,Domino's,Cheadle - Staffordshire,Staffordshire Moorlands,,West Midlands (England),52.988419,-1.98725,
29061,Domino's,Leek,Staffordshire Moorlands,,West Midlands (England),53.105901,-2.026572,
29325,Domino's,Ashbourne - Derbyshire,Derbyshire Dales,,East Midlands (England),53.01557,-1.73212,
28487,Domino's,Belper,Amber Valley,,East Midlands (England),53.023464,-1.480353,
28407,Domino's,Heanor,Amber Valley,,East Midlands (England),53.01328,-1.352779,
28386,Domino's,Ilkeston,Erewash,,East Midlands (England),52.978163,-1.3096,
28022,Domino's,Nottingham - Nuthall Road,City of Nottingham,,East Midlands (England),52.977324,-1.190934,
28853,Domino's,Nottingham - Bulwell,City of Nottingham,,East Midlands (England),53.011928,-1.190619,
28625,Domino's,Alfreton,Amber Valley,,East Midlands (England),53.097792,-1.385862,
29307,Domino's,Nottingham - Hucknall - Annesley Rd,Ashfield,,East Midlands (England),53.042681,-1.212568,
28857,Domino's,Nottingham - Carlton Hill,Gedling,,East Midlands (England),52.965814,-1.112342,
28084,Domino's,Nottingham - Mapperley,Gedling,,East Midlands (England),52.985431,-1.120157,
28869,Domino's,Nottingham - Arnold,Gedling,,East Midlands (England),53.003797,-1.128913,
29215,Domino's,Kirkby in Ashfield,Ashfield,,East Midlands (England),53.09925,-1.246473,
28513,Domino's,Newark,Newark and Sherwood,,East Midlands (England),53.074384,-0.808132,
28804,Domino's,Sleaford,North Kesteven,,East Midlands (England),53.007313,-0.417211,
28692,Domino's,Boston,Boston,,East Midlands (England),52.971695,-0.018374,
29315,Domino's,Tattershall,East Lindsey,,East Midlands (England),53.104284,-0.190795,
28558,Domino's,Chester - Saltney,City of Chester,,North West (England),53.179462,-2.916096,
28215,Domino's,Chester - Central,City of Chester,,North West (England),53.191543,-2.883966,
29143,Domino's,Chester - North,Upton-by-Chester,,North West (England),53.21451,-2.880235,
28644,Domino's,Winsford,Winsford,,North West (England),53.190747,-2.540384,
28729,Domino's,Sandbach,Sandbach,,North West (England),53.144288,-2.36654,
28201,Domino's,Northwich,Kingsmead,,North West (England),53.243139,-2.519555,
28614,Domino's,Congleton,Congleton,,North West (England),53.168305,-2.219222,
28163,Domino's,Macclesfield,Macclesfield,,North West (England),53.260681,-2.128279,
28826,Domino's,Buxton,High Peak,,East Midlands (England),53.25986,-1.914208,
29186,Domino's,Matlock,Derbyshire Dales,,East Midlands (England),53.1377217979816,-1.55287322871524,
28744,Domino's,Clay Cross,North East Derbyshire,,East Midlands (England),53.167975,-1.413077,
28318,Domino's,Chesterfield,Chesterfield,,East Midlands (England),53.233729,-1.423844,
28339,Domino's,Sutton in Ashfield,Ashfield,,East Midlands (England),53.123908,-1.25708,
27560,Domino's,Mansfield,Mansfield Woodhouse,,East Midlands (England),53.145004,-1.201249,
29030,Domino's,Mansfield - Woodhouse,Mansfield Woodhouse,,East Midlands (England),53.15972,-1.189325,
29317,Domino's,Bolsover,Bolsover,,East Midlands (England),53.229188,-1.291323,
29448,Domino's,Shirebrook,Shirebrook,,East Midlands (England),53.20333,-1.213386,
29204,Domino's,Chesterfield - Whittington Moor,Chesterfield,,East Midlands (England),53.259894,-1.428387,
29028,Domino's,New Ollerton,Newark and Sherwood,,East Midlands (England),53.203947,-1.008473,
28133,Domino's,Lincoln - South,Lincoln,,East Midlands (England),53.203804,-0.580156,
28582,Domino's,Lincoln - Central,Lincoln,,East Midlands (England),53.219908,-0.544641,
29254,Domino's,Lincoln - Ermine,Lincoln,,East Midlands (England),53.240066,-0.54592,
28250,Domino's,Lincoln - North,Lincoln,,East Midlands (England),53.242187,-0.510885,
29237,Domino's,Skegness,East Lindsey,,East Midlands (England),53.143542,0.337313,
29080,Domino's,Neston,Neston,,North West (England),53.289311,-3.063034,
28208,Domino's,Heswall,Gayton,,North West (England),53.329023,-3.09964,E02001503
28947,Domino's,Hoylake,Hoylake,,North West (England),53.391,-3.179159,E02001480
29091,Domino's,Little Sutton,Ellesmere Port,,North West (England),53.283621,-2.945226,
28390,Domino's,Upton - Wirral,Moreton,,North West (England),53.383926,-3.09858,E02001484
28153,Domino's,Bromborough,Eastham Village,,North West (England),53.319406,-2.965915,E02001507
29369,Domino's,Prenton,Prenton,,North West (England),53.37402,-3.04492,E02001488
28331,Domino's,Ellesmere Port,Ellesmere Port,,North West (England),53.278666,-2.900907,
28654,Domino's,Birkenhead,Oxton Village,,North West (England),53.390876,-3.028179,E02001482
29161,Domino's,Liverpool - Aigburth Road,Liverpool,,North West (England),53.378703,-2.948876,E02001398
28550,Domino's,Liverpool - Hunts Cross,Liverpool,,North West (England),53.357912,-2.86671,E02001401
28161,Domino's,Liverpool - Allerton Road,Liverpool,,North West (England),53.386949,-2.908997,E02001387
29160,Domino's,Runcorn - Old Town,Runcorn,,North West (England),53.342565,-2.732334,
28609,Domino's,Runcorn,Runcorn,,North West (England),53.326338,-2.698332,
29234,Domino's,Liverpool - Belle Vale,Liverpool,,North West (England),53.390575,-2.859918,E02001386
28365,Domino's,Liverpool - London Road,Liverpool,,North West (England),53.410153,-2.968103,
28388,Domino's,Widnes,Widnes,,North West (England),53.366329,-2.728927,
29188,Domino's,Northwich - Winnington,Northwich,,North West (England),53.266451,-2.538999,
28528,Domino's,Warrington - Great Sankey,Great Sankey,,North West (England),53.393294,-2.666826,
28507,Domino's,Liverpool - Huyton,Huyton,,North West (England),53.41304,-2.839459,E02001341
27553,Domino's,Stockton Heath,Stockton Heath,,North West (England),53.370129,-2.580587,
28967,Domino's,Knutsford,Knutsford,,North West (England),53.302313,-2.373234,
29104,Domino's,Warrington - Winwick Road,Warrington,,North West (England),53.395632,-2.593863,
29345,Domino's,Lymm,Lymm,,North West (England),53.381137,-2.477223,
27555,Domino's,Wilmslow,Wilmslow,,North West (England),53.326646,-2.236129,
28223,Domino's,Altrincham - Central,Trafford,,North West (England),53.387691,-2.348391,E02001283
28362,Domino's,Warrington - Birchwood,Birchwood,,North West (England),53.414213,-2.529017,
28902,Domino's,Manchester - Wythenshawe,Manchester,,North West (England),53.379904,-2.26087,E02001094
28259,Domino's,Cheadle Hulme,Cheadle Hulme,,North West (England),53.37346,-2.206117,E02001220
29305,Domino's,Poynton,Poynton,,North West (England),53.34741,-2.12302,
28983,Domino's,Altrincham - Broadheath,Trafford,,North West (England),53.40098,-2.353042,E02001282
29380,Domino's,Manchester - Gatley,Stockport,,North West (England),53.391422,-2.238066,E02001211
28141,Domino's,Stockport - South,Hazel Grove,,North West (England),53.388958,-2.136816,E02001213
28761,Domino's,Stockport - North,Stockport,,North West (England),53.406937,-2.159537,E02001200
28778,Domino's,Marple,Stockport,,North West (England),53.394692,-2.062732,E02001206
28383,Domino's,Dronfield,North East Derbyshire,,East Midlands (England),53.302335,-1.474087,
28143,Domino's,Sheffield - Chesterfield Road,Sheffield,,Yorkshire and The Humber,53.343584,-1.478242,E02001669
28061,Domino's,Sheffield - Ecclesall Road,Sheffield,,Yorkshire and The Humber,53.370461,-1.490899,E02001646
29306,Domino's,Sheffield - Manor Top,Sheffield,,Yorkshire and The Humber,53.36039,-1.42905,E02001658
29029,Domino's,Sheffield - Crookes,Sheffield,,Yorkshire and The Humber,53.385032,-1.507996,E02001638
28593,Domino's,Sheffield - City Centre,Sheffield,,Yorkshire and The Humber,53.380056,-1.47936,
28897,Domino's,Sheffield - Killamarsh,North East Derbyshire,,East Midlands (England),53.324601,-1.316301,
28814,Domino's,Clowne,Bolsover,,East Midlands (England),53.275587,-1.263759,
28809,Domino's,Sheffield - Handsworth,Sheffield,,Yorkshire and The Humber,53.372075,-1.383666,E02001642
28417,Domino's,Worksop,Bassetlaw,,East Midlands (England),53.325891,-1.133119,
29037,Domino's,Dinnington,Rotherham,,Yorkshire and The Humber,53.369071,-1.210143,E02001606
28912,Domino's,Retford,Bassetlaw,,East Midlands (England),53.321208,-0.941174,
28886,Domino's,Gainsborough,West Lindsey,,East Midlands (England),53.399699,-0.774611,
28688,Domino's,Wallasey,Wallasey,,North West (England),53.420515,-3.04509,E02001473
29040,Domino's,Liverpool - Great Homer Street,Liverpool,,North West (England),53.424519,-2.979986,E02001368
28292,Domino's,Crosby,Crosby,,North West (England),53.49075,-3.02688,E02001453
28384,Domino's,Liverpool - Rice Lane,Liverpool,,North West (England),53.457261,-2.963104,E02001349
28631,Domino's,Liverpool - West Derby,Liverpool,,North West (England),53.424552,-2.890772,E02001367
28969,Domino's,Liverpool - Stonedale Retail Park,Liverpool,,North West (England),53.456365,-2.916289,E02001350
29062,Domino's,Liverpool - Huyton Page Moss,Huyton,,North West (England),53.421912,-2.862145,E02001334
28570,Domino's,Liverpool - Aintree,Sefton,,North West (England),53.48574,-2.948645,E02001455
29016,Domino's,Liverpool - Maghull,Maghull,,North West (England),53.516681,-2.943035,E02001446
29058,Domino's,Liverpool - Prescot,Prescot,,North West (England),53.429786,-2.804837,E02001333
28605,Domino's,Formby,Formby,,North West (England),53.557566,-3.059356,E02001442
29261,Domino's,St Helens - South,St Helens,,North West (England),53.426978,-2.723339,E02001425
28418,Domino's,St Helens,St Helens,,North West (England),53.455726,-2.740514,E02001417
28568,Domino's,Haydock,St Helens,,North West (England),53.469278,-2.656418,E02001410
29263,Domino's,Ashton in Makerfield,Ashton-in-Makerfield,,North West (England),53.485,-2.639,E02001322
29171,Domino's,Skelmersdale,West Lancashire,,North West (England),53.550336,-2.7724754,
28564,Domino's,Wigan,Wigan,,North West (England),53.542319,-2.637991,E02001301
28406,Domino's,Leigh,Leigh,,North West (England),53.499806,-2.518815,E02001316
29180,Domino's,Manchester - Flixton,Trafford,,North West (England),53.444208,-2.384522,E02001263
28411,Domino's,Manchester - Urmston,Trafford,,North West (England),53.448227,-2.35602,E02001267
28315,Domino's,Manchester - Sale,Trafford,,North West (England),53.423589,-2.327107,E02001273
28284,Domino's,Bolton - Westhoughton,Westhoughton,,North West (England),53.548155,-2.523106,E02001014
28468,Domino's,Manchester - Eccles,Salford,,North West (England),53.481234,-2.357671,E02001183
28270,Domino's,Manchester - Chorlton,Manchester,,North West (England),53.442361,-2.279543,E02001073
28658,Domino's,Manchester - Didsbury,Manchester,,North West (England),53.418543,-2.232019,E02001087
29230,Domino's,Salford - Trafford Road,Salford,,North West (England),53.468438,-2.282813,
28773,Domino's,Manchester - Walkden,Salford,,North West (England),53.525785,-2.402021,E02001158
29370,Domino's,Salford - Pendleton,Salford,,North West (England),53.48784,-2.28735,E02001180
27548,Domino's,Swinton,Salford,,North West (England),53.510983,-2.337489,E02001161
27547,Domino's,Manchester - Fallowfield,Manchester,,North West (England),53.444079,-2.218698,E02001076
28506,Domino's,Manchester - All Saints,Manchester,,North West (England),53.470323,-2.236199,E02001062
28789,Domino's,Manchester - Arena,Salford,,North West (England),53.48817,-2.24668,
28344,Domino's,Manchester - Heaton Chapel,Stockport,,North West (England),53.429134,-2.178844,E02001192
28810,Domino's,Manchester - Ancoats,Manchester,,North West (England),53.47925,-2.221949,
27546,Domino's,Manchester - Prestwich,Prestwich,,North West (England),53.518568,-2.271583,E02001044
28607,Domino's,Manchester - Openshaw,Manchester,,North West (England),53.473449,-2.177632,E02001061
28446,Domino's,Manchester - Denton,Tameside,,North West (England),53.456438,-2.115845,E02001249
29319,Domino's,Manchester - Harpurhey,Manchester,,North West (England),53.51265,-2.21192,E02001050
28916,Domino's,Manchester - Hyde,Tameside,,North West (England),53.45246,-2.08134,E02001256
28793,Domino's,Manchester - Failsworth,Oldham,,North West (England),53.508061,-2.163708,E02001129
28430,Domino's,Ashton-Under-Lyne,Tameside,,North West (England),53.486901,-2.095221,E02001241
28543,Domino's,Manchester - Whitefield,Whitefield,,North West (England),53.553559,-2.296447,E02001037
28672,Domino's,Glossop,High Peak,,East Midlands (England),53.443082,-1.948787,
28728,Domino's,Manchester - Middleton,Middleton,,North West (England),53.550865,-2.195524,E02001155
28615,Domino's,Oldham,Oldham,,North West (England),53.546322,-2.091529,E02001109
28989,Domino's,Sheffield - Fox Valley,Sheffield,,Yorkshire and The Humber,53.48313,-1.58835,E02001611
28379,Domino's,Sheffield - Wadsley Bridge,Sheffield,,Yorkshire and The Humber,53.422304,-1.492072,E02001622
28547,Domino's,Sheffield - Chapeltown,Sheffield,,Yorkshire and The Humber,53.463175,-1.465241,E02001614
28847,Domino's,Rotherham - Central,Rotherham,,Yorkshire and The Humber,53.433648,-1.363319,E02001593
29431,Domino's,Hoyland,Barnsley,,Yorkshire and The Humber,53.501021,-1.438441,E02001538
28451,Domino's,Barnsley,Barnsley,,Yorkshire and The Humber,53.55241,-1.48506,E02001521
28685,Domino's,Wath Upon Dearne,Rotherham,,Yorkshire and The Humber,53.510362,-1.356464,E02001578
28461,Domino's,Rotherham - Bramley,Rotherham,,Yorkshire and The Humber,53.424519,-1.256578,E02001595
29364,Domino's,Maltby,Maltby,,Yorkshire and The Humber,53.42338,-1.19781,E02001597
29200,Domino's,Mexborough,Doncaster,,Yorkshire and The Humber,53.493524,-1.290813,E02001569
29255,Domino's,Barnsley - Stairfoot,Barnsley,,Yorkshire and The Humber,53.545687,-1.440082,E02001523
29214,Domino's,Doncaster - Harworth,Bassetlaw,,East Midlands (England),53.416897,-1.06237,
28261,Domino's,Doncaster,Doncaster,,Yorkshire and The Humber,53.51656,-1.115374,E02001560
28838,Domino's,Doncaster - Scawsby,Doncaster,,Yorkshire and The Humber,53.536898,-1.16812,E02001554
29449,Domino's,Brigg,Brigg,,Yorkshire and The Humber,53.551281,-0.495475,
28521,Domino's,Grimsby - West,Bradley,,Yorkshire and The Humber,53.551016,-0.125421,
29069,Domino's,Cleethorpes,Cleethorpes,,Yorkshire and The Humber,53.559247,-0.031165,
28229,Domino's,Southport,Southport,,North West (England),53.642932,-3.000675,E02001435
28630,Domino's,Ormskirk,West Lancashire,,North West (England),53.5681106,-2.8871163,
29057,Domino's,Southport - Churchtown,Sefton,,North West (England),53.66146,-2.966199,E02001430
28748,Domino's,Standish,Wigan,,North West (England),53.586712,-2.662798,E02001288
29356,Domino's,Hesketh Bank,West Lancashire,,North West (England),53.6977,-2.83795,
28935,Domino's,Horwich,Horwich,,North West (England),53.593872,-2.544625,E02000987
28204,Domino's,Chorley,Chorley,,North West (England),53.653845,-2.630322,
28987,Domino's,Buckshaw Village,Chorley,,North West (England),53.675934,-2.654629,
28234,Domino's,Leyland,South Ribble,,North West (England),53.697601,-2.690705,
28424,Domino's,Bolton - Central,Bolton,,North West (England),53.573345,-2.434181,E02000999
28572,Domino's,Bolton - North,Bolton,,North West (England),53.601953,-2.432432,E02000988
28387,Domino's,Bury,Bury,,North West (England),53.592756,-2.311401,E02001027
28661,Domino's,Heywood,Heywood,,North West (England),53.593806,-2.224411,E02001149
28420,Domino's,Rochdale,Milnrow,,North West (England),53.621774,-2.132766,E02001135
29096,Domino's,Rawtenstall,Rossendale,,North West (England),53.697695,-2.295038,
28768,Domino's,Huddersfield - Honley,Kirklees,,Yorkshire and The Humber,53.604634,-1.788442,
29256,Domino's,Todmorden,Calderdale,,Yorkshire and The Humber,53.713522,-2.097083,
28377,Domino's,Huddersfield - Central,Kirklees,,Yorkshire and The Humber,53.650681,-1.783909,
28750,Domino's,Huddersfield - Wakefield Road,Kirklees,,Yorkshire and The Humber,53.645216,-1.73712,
29438,Domino's,Denby Dale,Kirklees,,Yorkshire and The Humber,53.587724,-1.62737,
28442,Domino's,Brighouse,Calderdale,,Yorkshire and The Humber,53.702322,-1.781237,
28567,Domino's,Heckmondwike,Kirklees,,Yorkshire and The Humber,53.708592,-1.677447,
28217,Domino's,Wakefield - Horbury Road,Wakefield,,Yorkshire and The Humber,53.677009,-1.517398,
28874,Domino's,Hemsworth,Wakefield,,Yorkshire and The Humber,53.612233,-1.353424,
29020,Domino's,Wakefield - Chantry Bridge,Wakefield,,Yorkshire and The Humber,53.67766,-1.489853,
28555,Domino's,Pontefract,Wakefield,,Yorkshire and The Humber,53.693351,-1.306642,
28893,Domino's,Doncaster - Dunscroft,Doncaster,,Yorkshire and The Humber,53.58201,-1.012593,E02001544
29084,Domino's,Castleford,Wakefield,,Yorkshire and The Humber,53.71081,-1.34219,
28523,Domino's,Scunthorpe,Yaddlethorpe,,Yorkshire and The Humber,53.56689,-0.651187,
29000,Domino's,Goole,Goole,,Yorkshire and The Humber,53.704342,-0.873567,
28385,Domino's,Grimsby - Central,Grimsby,,Yorkshire and The Humber,53.570801,-0.081718,
28083,Domino's,Lytham St Anne's,Fylde,,North West (England),53.740979,-2.993353,
29021,Domino's,Blackpool - Squires Gate,Squires Gate,,North West (England),53.77978,-3.040161,
27551,Domino's,Blackpool - South Shore,Blackpool,,North West (England),53.802464,-3.027982,
28323,Domino's,Blackpool - Central,Blackpool,,North West (England),53.815242,-3.036649,
27554,Domino's,Blackpool - North Shore,Blackpool,,North West (England),53.832708,-3.04062,
29298,Domino's,Poulton-Le-Fylde,Wyre,,North West (England),53.848,-2.993,
28693,Domino's,Preston - West,Preston,,North West (England),53.77183,-2.724179,
28645,Domino's,Bamber Bridge,South Ribble,,North West (England),53.730166,-2.661612,
28152,Domino's,Preston,Preston,,North West (England),53.769897,-2.691245,
28794,Domino's,Blackburn,Lower Darwen,,North West (England),53.73673,-2.48866,
29334,Domino's,Longridge,Ribble Valley,,North West (England),53.83242,-2.60526,
28943,Domino's,Accrington,Hyndburn,,North West (England),53.7549779,-2.3682638,
28997,Domino's,Great Harwood,Hyndburn,,North West (England),53.785973,-2.403023,
28463,Domino's,Burnley,Burnley,,North West (England),53.792053,-2.239149,
28840,Domino's,Colne,Pendle,,North West (England),53.856975,-2.165163,
28374,Domino's,Halifax,Calderdale,,Yorkshire and The Humber,53.721215,-1.860016,
28680,Domino's,Bradford - Buttershaw,Bradford,,Yorkshire and The Humber,53.768448,-1.763099,
29065,Domino's,Cleckheaton,Kirklees,,Yorkshire and The Humber,53.724302,-1.713075,
28443,Domino's,Bradford - Lidget Green,Bradford,,Yorkshire and The Humber,53.797375,-1.783963,
28178,Domino's,Bradford - Eccleshill,Bradford,,Yorkshire and The Humber,53.81678,-1.734835,
28313,Domino's,Leeds - Pudsey,Leeds,,Yorkshire and The Humber,53.792655,-1.668955,
28544,Domino's,Leeds - Morley,Morley,,Yorkshire and The Humber,53.744533,-1.59969,
29097,Domino's,Bingley,Bradford,,Yorkshire and The Humber,53.848687,-1.8383,
29321,Domino's,Leeds - Middleton,Leeds,,Yorkshire and The Humber,53.74821,-1.54886,
29033,Domino's,Leeds - Wortley,Leeds,,Yorkshire and The Humber,53.795649,-1.620442,
28887,Domino's,Leeds - Burley Road,Leeds,,Yorkshire and The Humber,53.802337,-1.564948,
28458,Domino's,Leeds - Horsforth,Horsforth,,Yorkshire and The Humber,53.833402,-1.648137,
28540,Domino's,Leeds - Central,Leeds,,Yorkshire and The Humber,53.8014666,-1.5430997,
28252,Domino's,Leeds - Headingley,Leeds,,Yorkshire and The Humber,53.823434,-1.580832,
28541,Domino's,Leeds - Oulton,Leeds,,Yorkshire and The Humber,53.751019,-1.448002,
28486,Domino's,Leeds - Crossgates,Leeds,,Yorkshire and The Humber,53.808055,-1.454693,
29066,Domino's,Leeds - Garforth,Leeds,,Yorkshire and The Humber,53.79484,-1.388031,
27559,Domino's,Leeds - Roundhay,Leeds,,Yorkshire and The Humber,53.845002,-1.510885,
29135,Domino's,Sherburn in Elmet,Sherburn in Elmet,,Yorkshire and The Humber,53.7969369,-1.2518232,
29067,Domino's,Selby,Selby,,Yorkshire and The Humber,53.783654,-1.070081,
28872,Domino's,Hull - Hessle,Hessle,,Yorkshire and The Humber,53.724424,-0.435856,
28444,Domino's,Hull - County Road South,Hull,,Yorkshire and The Humber,53.754905,-0.399474,
28906,Domino's,Market Weighton,Market Weighton,,Yorkshire and The Humber,53.862281,-0.66372,
29004,Domino's,Hull - City Centre,Hull,,Yorkshire and The Humber,53.743929,-0.344274,
28370,Domino's,Hull - Beverley Road,Hull,,Yorkshire and The Humber,53.767466,-0.354065,
29231,Domino's,Hull - Kingswood,Hull,,Yorkshire and The Humber,53.79246,-0.35262,
28767,Domino's,Hull - Holderness Road,Sutton,,Yorkshire and The Humber,53.764653,-0.293937,
28843,Domino's,Beverley,Beverley,,Yorkshire and The Humber,53.845054,-0.431366,
28117,Domino's,Thornton Cleveleys,Wyre,,North West (England),53.875629,-3.012054,
28903,Domino's,Fleetwood,Wyre,,North West (England),53.919297,-3.030544,
29194,Domino's,Skipton,Skipton,,Yorkshire and The Humber,53.960149,-2.019174,
28457,Domino's,Keighley,Bradford,,Yorkshire and The Humber,53.874529,-1.892907,
28901,Domino's,Ilkley,Bradford,,Yorkshire and The Humber,53.924396,-1.819601,
28268,Domino's,Leeds - Guiseley,Leeds,,Yorkshire and The Humber,53.874112,-1.714198,
29272,Domino's,Wetherby,Leeds,,Yorkshire and The Humber,53.92899,-1.38722,
27556,Domino's,Harrogate - West,Harrogate,,Yorkshire and The Humber,53.977663,-1.533806,
28697,Domino's,Harrogate - East,Harrogate,,Yorkshire and The Humber,53.996004,-1.5149,
28896,Domino's,York - Acomb,York,,Yorkshire and The Humber,53.955922,-1.122839,
28556,Domino's,Mobile Unit 1,Heslington,,Yorkshire and The Humber,53.945951,-1.054215,
28991,Domino's,York - Hull Road,Heslington,,Yorkshire and The Humber,53.954264,-1.058173,
28423,Domino's,York - Clifton Moor,Clifton Without,,Yorkshire and The Humber,53.985506,-1.100798,
29017,Domino's,Driffield,Driffield,,Yorkshire and The Humber,54.005788,-0.439927,
28499,Domino's,Barrow-in-Furness - Walney Road,Barrow-in-Furness,,North West (England),54.123741,-3.238744,
29132,Domino's,Barrow-in-Furness - Roose Road,Barrow-in-Furness,,North West (England),54.111741,-3.200862,
28823,Domino's,Morecambe,Lancaster,,North West (England),54.070283,-2.870243,
28394,Domino's,Lancaster,Lancaster,,North West (England),54.049556,-2.79942,
28958,Domino's,Ripon,Ripon,,Yorkshire and The Humber,54.137872,-1.523776,
29399,Domino's,York - Haxby,Haxby,,Yorkshire and The Humber,54.016001,-1.073057,
29094,Domino's,Bridlington,Bridlington,,Yorkshire and The Humber,54.082864,-0.189222,
28465,Domino's,Scarborough,Scarborough,,Yorkshire and The Humber,54.283842,-0.403692,
29258,Domino's,Bowness-on-Windermere,Bowness on Windermere,,North West (England),54.3637181863694,-2.92090094144872,
28445,Domino's,Kendal - New Road,Kendal,,North West (England),54.328365,-2.7426,
28879,Domino's,Catterick Garrison,Catterick Garrison,,Yorkshire and The Humber,54.376045,-1.723573,
28980,Domino's,Northallerton,Northallerton,,Yorkshire and The Humber,54.340739,-1.432474,
29059,Domino's,Whitehaven,Whitehaven,,North West (England),54.550694,-3.587669,
28148,Domino's,Darlington,Darlington,,North East (England),54.528773,-1.552865,
29236,Domino's,Ingleby Barwick,Thornaby-on-Tees,,North East (England),54.527603,-1.292867,
29393,Domino's,Middlesbrough - Coulby Newham,Middlesbrough,,North East (England),54.52299,-1.220906,
28515,Domino's,Stockton on Tees,Stockton-on-Tees,,North East (England),54.563978,-1.314892,
28639,Domino's,Middlesbrough - Linthorpe Road,Middlesbrough,,North East (England),54.572083,-1.237923,
29190,Domino's,Middlesbrough - Ormesby Road,Middlesbrough,,North East (England),54.562704,-1.205842,
29247,Domino's,Guisborough,Guisborough,,North East (England),54.5316,-1.056879,
29246,Domino's,Skelton,New Skelton,,North East (England),54.56718,-0.96165,
28479,Domino's,Redcar,New Marske,,North East (England),54.60246,-1.075908,
29291,Domino's,Whitby,Whitby,,Yorkshire and The Humber,54.486,-0.614,
28977,Domino's,Workington,Workington,,North West (England),54.643503,-3.545923,
29229,Domino's,Cockermouth,Cockermouth,,North West (England),54.662879,-3.36417,
28894,Domino's,Penrith - Cornmarket,Penrith,,North West (England),54.663679,-2.753432,
28771,Domino's,Bishop Auckland,Bishop Auckland,,North East (England),54.640208,-1.693492,
29339,Domino's,Crook,Crook,,North East (England),54.714303,-1.745215,
29023,Domino's,Newton Aycliffe,Great Aycliffe,,North East (England),54.621195,-1.569479,
29102,Domino's,Spennymoor,Hett,,North East (England),54.705957,-1.56636,
29184,Domino's,Wolviston,Wolviston,,North East (England),54.628254,-1.305862,
29232,Domino's,Hartlepool - Catcote Road,Hartlepool,,North East (England),54.671735,-1.236388,
28410,Domino's,Hartlepool - Central,Hartlepool,,North East (England),54.681359,-1.216323,
29074,Domino's,Hartlepool - Bishop Cuthbert,Hart,,North East (England),54.707061,-1.248916,
29312,Domino's,Peterlee,Peterlee,,North East (England),54.749169,-1.358495,
29013,Domino's,Carlisle - Wigton Road,Carlisle,,North West (England),54.888086,-2.962039,
28355,Domino's,Carlisle - London Road,Carlisle,,North West (England),54.888497,-2.925366,
29140,Domino's,Carlisle - Kingstown Road,Carlisle,,North West (England),54.915468,-2.942421,
28746,Domino's,Consett,Consett,,North East (England),54.852775,-1.833759,
28363,Domino's,Durham,Durham,,North East (England),54.778331,-1.584023,
29226,Domino's,Stanley,Stanley,,North East (England),54.87209,-1.6957,
29111,Domino's,Durham - East,Carrville,,North East (England),54.776589,-1.541493,
28720,Domino's,Chester Le Street,Chester-le-Street,,North East (England),54.859255,-1.575066,
28662,Domino's,Houghton-le-Spring,Sunderland,,North East (England),54.845146,-1.471876,E02001824
29144,Domino's,Seaham,Seaham,,North East (England),54.836488,-1.330913,
28398,Domino's,Sunderland - South,Sunderland,,North East (England),54.907376,-1.414294,E02001805
29116,Domino's,Sunderland - Central,Sunderland,,North East (England),54.907392,-1.385134,E02001803
28873,Domino's,Blaydon,Blaydon on Tyne,,North East (England),54.965369,-1.713719,E02001686
29070,Domino's,Newcastle - Whickham,Whickham,,North East (England),54.94586,-1.680718,E02001690
29368,Domino's,Newcastle - Westerhope,Newcastle upon Tyne,,North East (England),54.999906,-1.694926,
28342,Domino's,Newcastle - Cowgate,Newcastle upon Tyne,,North East (England),54.989794,-1.653177,E02001715
27549,Domino's,Gateshead,Gateshead,,North East (England),54.948751,-1.599431,E02001691
28806,Domino's,Newcastle - University (Closed),Newcastle upon Tyne,,North East (England),54.978895,-1.615035,
29018,Domino's,Newcastle - Kingston,Newcastle upon Tyne,,North East (England),55.012441,-1.667048,
28535,Domino's,Washington,Sunderland,,North East (England),54.91265,-1.523747,E02001799
28683,Domino's,Newcastle - Heaton,Newcastle upon Tyne,,North East (England),54.987892,-1.577242,E02001725
28086,Domino's,Newcastle - Gosforth,Newcastle upon Tyne,,North East (England),55.007136,-1.605481,E02001712
28796,Domino's,Jarrow,South Tyneside,,North East (England),54.980832,-1.48771,E02001774
29068,Domino's,Newcastle - Forest Hall,North Tyneside,,North East (England),55.021744,-1.565691,E02001751
28518,Domino's,Sunderland - North,Sunderland,,North East (England),54.930317,-1.376442,E02001792
28511,Domino's,South Shields,South Tyneside,,North East (England),54.972398,-1.406503,E02001775
28214,Domino's,Newcastle - North Shields,North Tyneside,,North East (England),55.023133,-1.456323,E02001750
28368,Domino's,Cramlington,Cramlington,,North East (England),55.08463,-1.58796,
29031,Domino's,Blyth,Blyth,,North East (England),55.126649,-1.511465,
28831,Domino's,Ashington,Ashington,,North East (England),55.185539,-1.587514,
00817,KFC,Rainham - Cherry Tree Lane,Rainham,RM13 8TX,London,51.5283972,0.1893944,E02000491
12521,KFC,Bristol - Cabot Circus,Cabot Circus,BS1 3BX,South West (England),51.45819831,-2.585693966,
11016,KFC,Portsmouth - Binnacle Way,Portsmouth,PO6 4SR,South East (England),50.8465843,-1.0963995,
08938,KFC,Staines - High Street,Staines,TW18 4EE,South East (England),51.433735244,-0.512860141,
08463,KFC,Uxbridge - Oxford Road,Uxbridge,UB9 4DW,South East (England),51.5582566,-0.492481,
08308,KFC,Killingworth - Killingworth Centre,Newcastle,NE12 6HA,North East (England),55.036805,-1.5642152,E02001739
08431,KFC,Kettering Leisure Park,Kettering,NN15 6XS,East Midlands (England),52.3738692,-0.7182301,
01612,KFC,Maidstone - Week Street,Maidstone,ME14 1QX,South East (England),51.27671732,0.521929746,
02060,KFC,Warrington - Kings Way South,Warrington,WA4 1LT,North West (England),53.38212027,-2.560645931,
12119,KFC,Sittingbourne - Mill Way,Sittingbourne,ME10 2XD,South East (England),51.3443804,0.733788,
02018,KFC,Junction 27 - Bankwood Way,Birstall,WF17 9TB,Yorkshire and The Humber,53.74279625,-1.64395097,
10539,KFC,Archway - Holloway Road,Archway,N19 5SE,London,51.5649297,-0.1332148,E02000555
01001,KFC,Hastings - Old London Road,Hastings,TN35  5BG,South East (England),50.8726933,0.6089207,
02081,KFC,Baguley Tesco,Manchester,M23 9TJ,North West (England),53.400681446,-2.297425476,E02001091
8423,KFC,Ealing - The Mall,London,W5  2PJ,London,51.51424226,-0.300762061,
10556,KFC,London - Baker Street,London,W1U 6TZ,London,51.52166828,-0.157086296,E02000967
9406,KFC,High Wycombe - Wycombe Retail Park,High Wycombe,HP11 1FY,South East (England),51.61916645,-0.720656932,
12915,KFC,Newton Aycliffe - A167,Newton Aycliffe,DL1 3NL,North East (England),54.586908539,-1.564189951,
08702,KFC,Wigan - Manchester Road,Wigan,WN2 2AT,North West (England),53.5435884,-2.6058795,E02001298
12921,KFC,Belle Vale - Beacon Services,Huyton,L36 6AD,North West (England),53.398257707,-2.814303002,E02001343
65003,KFC,Sheffield - Meadowhall Shopping Centre,Sheffield,S9 1EP,Yorkshire and The Humber,53.41386389,-1.413546656,E02001628
5917,KFC,Hulme - Greenheys Lane West,Hulme,M15 5AS,North West (England),53.462395,-2.24609612,E02001063
10565,KFC,Luton - The Mall,Luton,LU1 2LJ,East (England),51.8790791,-0.415281053,
00704,KFC,Preston - Fishergate,Preston,PR1 2NJ,North West (England),53.7578295,-2.7037822,
03036,KFC,Nottingham - Clifton Lane,Nottingham,NG11 8NA,East Midlands (England),52.90594948,-1.188145976,
08705,KFC,Ashton in Makerfield Rst,Wigan,WN4 9AG,North West (England),53.486499,-2.637244,E02001322
05005,KFC,Grays Thurrock - High Street,Grays Thurrock,RM17  6LU,East (England),51.47809424,0.322869107,
08937,KFC,Tottenham - High Road,Tottenham,N17 9JD,London,51.592808267,-0.06953368889,E02000408
801,KFC,Upton Park - Green Street,London,E13 9AR,London,51.5359001,0.0354157,E02000727
05893,KFC,Romford - Straight Road,Romford,RM3 8AA,London,51.59319396,0.214053181,E02000469
10531,KFC,London - Apex Corner,London,NW7 3ET,London,51.6218021,-0.2561178,E02000036
13426,KFC,Newcastle - Northumberland Street,Newcastle Upon Tyne,NE1 7AG,North East (England),54.97655432,-1.613426209,
04311,KFC,Brentford - High Street,London,TW8 8AL,London,51.48347,-0.3074864,E02000531
02066,KFC,Oldham - Huddersfield Road,Oldham,OL1 3NQ,North West (England),53.54557119,-2.094455326,E02001108
11017,KFC,Bognor Regis - Shripney Road Retail Park,Bognor Regis,PO22 9TR,South East (England),50.80360186,-0.667521885,
11042,KFC,Guildford - High Street,Guildford,GU1 3JL,South East (England),51.237342,-0.567322,
10550,KFC,South Kensington - Gloucester Road,South Kensington,SW7 4SS,London,51.49463279,-0.182416229,E02000592
02064,KFC,Hyde - Clarendon Road,Hyde,SK14 2QZ,North West (England),53.4509974,-2.0751889,E02001256
01606,KFC,Catford - Rushey Green,London,SE6 4HQ,London,51.44580724,-0.019903896,E02000672
02023,KFC,Colton Mill - Stile Hill Way,Leeds,LS15 9JD,Yorkshire and The Humber,53.7930504,-1.4312912,
10328,KFC,Junction 11 - M20 Services,Stanford,CT21 4BL,South East (England),51.09480794,1.044295345,
03047,KFC,Rugeley - Leathermill Lane,Rugeley,WS15 2WD,West Midlands (England),52.761378651,-1.929348481,
7009,KFC,Bristol - Keynsham,Keynsham,BS31 1ST,South West (England),51.4132695,-2.4823071,
14003,KFC,London The O2,London,SE10 0DX,London,51.503269953,0.002401850329,
05026,KFC,Laindon - High Road,Laindon,SS15 6NT,East (England),51.57031774,0.421135869,
08928,KFC,Borough - High Street,London,SE1 1LB,London,51.502765,-0.0924104,E02000808
10597,KFC,Heathrow - Bath Road,Heathrow,TW6 2AA,London,51.4809963,-0.419581964,E02000525
13441,KFC,Worcester - Hornhill Road,Worcester,WR4 0SX,West Midlands (England),52.1878061,-2.1730661,
65031,KFC,Sheffield - Queens Road,Sheffield,S2 4DL,Yorkshire and The Humber,53.36909715,-1.465178293,E02001661
14004,KFC,Harwich Parkeston,Harwich,CO12 4YA,East (England),51.94151578,1.259803474,
10507,KFC,Harlow - Staple Tye Shopping Centre,Harlow,CM18 7PJ,East (England),51.7532204,0.0915788,
10564,KFC,Swindon - Delta Park,Swindon,SN5 7XP,South West (England),51.55858927,-1.814441223,
10710,KFC,Vauxhall - Kennington Lane,London,SE11 5HY,London,51.486101273,-0.1210435753,E02000621
8404,KFC,Chiswick - High Road,Chiswick,W4  1SH,London,51.49311834,-0.250666614,E02000526
02004,KFC,Huddersfield - Westbourne Road,Huddersfield,HD1 4LG,Yorkshire and The Humber,53.65133838,-1.806021536,
05018,KFC,Pitsea Retail Park,Basildon,SS13 3AB,East (England),51.5642888,0.5054763,
05409,KFC,Enfield - Coliseum Retail Park,Enfield,EN1 3FB,London,51.6511986,-0.0594872,E02000288
05802,KFC,Brixton - Brixton Road,London,SW9 8HH,London,51.46155712,-0.11508501,E02000628
08709,KFC,Preston - Leyland Road,Preston,PR5 5RY,North West (England),53.72673592,-2.693418649,
12106,KFC,Lewisham - High Street,London,SE13  6LY,London,51.4587438,-0.0121985,
10536,KFC,Burton on Trent - Guild Street,Burton-on-Trent,DE14 1NQ,West Midlands (England),52.8060449,-1.6317628,
65057,KFC,Thorne - Omega Boulevard,Doncaster,DN8 5UG,Yorkshire and The Humber,53.615744377,-0.9774412907,E02001541
